# LAS format data
~Version Information
VERS.     2.00: CWLS LOG ASCII STANDARD - VERSION 2.0
WRAP.       NO: ONE LINE PER DEPTH STEP
~Well Information
#MNEM   .UNITS    DATA                           DESCRIPTION
#----   ------    ----                           -----------
STRT    .M        3688.8003                     :First Index Value
STOP    .M        30.2001                       :Last Index Value
STEP    .M        -0.1000                       :Frame Spacing
NULL    .         -999.2500                     :Absent Value
WELL    .         CAPELLE-01                    :Well Name   
FLD     .         UNKNOWN                       :Field Name  
CNTY    .                                       :County
STAT    .                                       :State
CTRY    .                                       :Country
LOC     .                                       :Location
API     .                                       :API Number
DATE    .                                       :Date
COMP    .         NAM                           :Company Name
SRVC    .                                       :Service Company
~Parameter Information
#MNEM   .UNITS    VALUE                          DESCRIPTION
#----   ------    -----                          -----------
TDL     .M        3700.00000                    :Total Depth (Logger)
TDD     .M        3700.00000                    :Total Depth (Driller)   
UBID    .         2571                          :Unique Borehole Id  
PDAT    .         Mean Sea Level                :Permanent Datum 
EPD     .M           0.00000                    :Elevation of Permanent Datum (PDAT) above Mean Sea Level
LMF     .         Rotary Table                  :Logging Measured From (Name of Logging Elevation Reference) 
APD     .M           3.77000                    :Elevation of Depth Reference (LMF) Above Permanent Datum
~Curve Information
#MNEM   .UNITS    API CODE                       CURVE DESCRIPTION
#----   ------    --------                       -----------------
DEPT    .M                                      :1     Index curve
GR      .GAPI                                   :2     SNAM  
DT      .US/F                                   :3     SNAM  
RHOB    .G/C3                                   :4     SNAM  
DRHO    .G/C3                                   :5     SNAM  
NPHI    .V/V                                    :6     SNAM  
~Ascii Log Data
# ...
    2114.4004     79.477921     97.025879      2.220788      0.129968      0.429155
    2114.3004     79.298447     96.955948      2.197749      0.143732      0.429864
    2114.2004     79.402527     96.806671      2.175056      0.148954      0.427757
    2114.1004     79.522446     96.668106      2.151258      0.149626      0.424875
    2114.0004     79.168259     96.680435      2.124764      0.148813      0.423322
    2113.9004     78.017776     96.920853      2.097532      0.146933      0.423729
    2113.8004     76.227951     97.323273      2.073506      0.144317      0.425910
    2113.7004     74.208710     97.710220      2.053593      0.140581      0.429407
    2113.6004     72.248215     97.926666      2.035527      0.134132      0.433367
    2113.5004     70.688736     97.941513      2.019954      0.125111      0.436838
    2113.4004     69.930115     97.841858      2.009180      0.116962      0.438916
    2113.3004     69.984192     97.691895      2.002905      0.112211      0.439213
    2113.2004     70.570770     97.485092      1.998779      0.110913      0.437937
    2113.1004     71.575912     97.232712      1.993817      0.112719      0.435659
    2113.0004     73.121307     97.000549      1.987884      0.117257      0.432984
    2112.9004     75.217056     96.869644      1.984535      0.122902      0.430240
    2112.8004     77.681610     96.865494      1.985650      0.126434      0.427790
    2112.7004     79.980774     96.942734      1.986469      0.122562      0.427360
    2112.6004     81.456482     97.023422      1.975757      0.106482      0.430498
    2112.5004     81.838776     97.089935      1.941456      0.079934      0.436215
    2112.4004     81.283142     97.262680      1.883299      0.051759      0.441962
    2112.3004     80.145477     97.705765      1.815094      0.030737      0.445572
    2112.2004     78.829529     98.461166      1.760304      0.021801      0.445424
    2112.1004     77.806427     99.390808      1.753263      0.023318      0.439979
    2112.0004     77.271423    100.285889      1.822114      0.031027      0.425236
    2111.9004     76.933777    100.951691      1.941672      0.041076      0.397875
    2111.8004     76.425964    101.237137      2.046103      0.048640      0.367250
    2111.7004     75.670776    101.054565      2.116062      0.049124      0.347794
    2111.6004     74.818542    100.465652      2.173563      0.042766      0.343676
    2111.5004     74.038391     99.625092      2.215312      0.035420      0.354763
    2111.4004     73.476227     98.641724      2.214668      0.032343      0.375766
    2111.3004     73.270981     97.739792      2.177409      0.034132      0.395890
    2111.2004     73.612656     97.268265      2.131754      0.040559      0.408426
    2111.1004     74.696396     97.333008      2.084736      0.049821      0.414510
    2111.0004     76.242233     97.680679      2.035075      0.058300      0.417314
    2110.9004     77.646774     98.070129      1.983417      0.065215      0.419075
    2110.8004     78.578003     98.335403      1.931981      0.071516      0.422791
    2110.7004     79.008865     98.261810      1.893832      0.077999      0.430968
    2110.6004     78.994141     97.761765      1.890672      0.086557      0.438780
    2110.5004     78.540115     97.000458      1.943535      0.099767      0.442986
    2110.4004     77.671585     96.256180      2.032203      0.118410      0.443149
    2110.3004     76.547836     95.762390      2.107869      0.137498      0.439369
    2110.2004     75.300323     95.591736      2.163095      0.148874      0.431348
    2110.1004     73.625870     95.658096      2.206155      0.152925      0.422187
    2110.0004     71.102402     95.873505      2.230770      0.151703      0.417727
    2109.9004     68.303909     96.115799      2.242013      0.148920      0.416860
    2109.8004     66.144226     96.293213      2.245254      0.148614      0.417041
    2109.7004     65.060883     96.388275      2.241318      0.151021      0.417494
    2109.6004     64.928284     96.531815      2.227256      0.154723      0.418064
    2109.5004     65.581360     96.637115      2.206797      0.159325      0.419418
    2109.4004     66.572540     96.434708      2.186435      0.163245      0.424214
    2109.3004     67.469116     95.805679      2.170290      0.164283      0.434009
    2109.2004     67.922333     94.962891      2.156555      0.162083      0.440770
    2109.1004     67.787170     94.236252      2.145639      0.156630      0.441121
    2109.0004     67.322128     93.951660      2.141569      0.150025      0.434999
    2108.9004     66.958435     94.214233      2.142681      0.145633      0.427891
    2108.8004     67.099167     95.109772      2.153502      0.146077      0.424033
    2108.7004     67.799683     96.364822      2.171027      0.148788      0.424174
    2108.6004     69.124725     97.670258      2.185641      0.152406      0.431457
    2108.5004     71.122513     98.959824      2.156111      0.153343      0.444541
    2108.4004     73.438919    100.132050      2.092209      0.135164      0.450404
    2108.3004     75.751083    101.021683      2.046246      0.107095      0.448930
    2108.2004     77.998230    101.546173      1.998596      0.081618      0.434509
    2108.1004     79.631958    101.306015      1.852850      0.061154      0.424651
    2108.0004     80.173981    100.295563      1.775242      0.043351      0.416377
    2107.9004     79.755478     98.855011      1.769959      0.028185      0.404330
    2107.8004     78.574417     97.217468      1.851904      0.025726      0.392496
    2107.7004     77.045685     95.788467      1.936471      0.035038      0.386198
    2107.6004     75.644379     94.724289      2.022066      0.047711      0.382374
    2107.5004     74.703568     94.592209      2.131934      0.060669      0.378771
    2107.4004     74.296524     95.688477      2.167696      0.073033      0.375471
    2107.3004     74.479355     97.253189      2.120851      0.080980      0.374956
    2107.2004     75.316254     98.200363      2.050533      0.082169      0.382271
    2107.1004     76.833282     98.099731      2.005045      0.074804      0.385788
    2107.0004     78.724075     97.262939      1.953208      0.061511      0.379105
    2106.9004     80.637894     96.717819      1.869681      0.049279      0.364589
    2106.8004     82.592499     96.863983      1.821206      0.048190      0.348819
    2106.7004     84.504135     97.326935      1.841551      0.059393      0.338306
    2106.6004     86.326340     97.572449      1.923442      0.074954      0.333461
    2106.5004     87.618286     97.353210      2.025290      0.089378      0.334938
    2106.4004     87.662354     96.709183      2.133278      0.097084      0.343228
    2106.3004     86.450851     95.847992      2.208513      0.095746      0.355938
    2106.2004     84.594818     95.215424      2.217402      0.084965      0.371388
    2106.1004     82.637482     95.264313      2.162766      0.072016      0.389303
    2106.0004     80.723221     95.934250      2.081589      0.062659      0.406916
    2105.9004     79.091827     96.791855      2.013065      0.056087      0.425736
    2105.8004     77.957596     97.401352      1.928906      0.050164      0.450549
    2105.7004     77.649033     97.424255      1.819778      0.044365      0.468029
    2105.6004     78.392166     96.803604      1.740086      0.038661      0.470284
    2105.5004     80.235840     95.739197      1.726223      0.032883      0.462048
    2105.4004     82.799911     94.490936      1.777630      0.027132      0.441706
    2105.3004     85.402176     93.279602      1.868365      0.021868      0.415883
    2105.2004     87.684692     92.353577      1.958638      0.018260      0.394819
    2105.1004     89.438049     92.156464      2.037290      0.018788      0.380301
    2105.0004     90.434097     92.981888      2.115070      0.027014      0.371024
    2104.9004     90.417053     94.579132      2.188139      0.046937      0.364358
