# LAS format data
~Version Information
VERS.     2.00: CWLS LOG ASCII STANDARD - VERSION 2.0
WRAP.       NO: ONE LINE PER DEPTH STEP
~Well Information
#MNEM   .UNITS    DATA                           DESCRIPTION
#----   ------    ----                           -----------
STRT    .M        3688.8003                     :First Index Value
STOP    .M        30.2001                       :Last Index Value
STEP    .M        -0.1000                       :Frame Spacing
NULL    .         -999.2500                     :Absent Value
WELL    .         CAPELLE-01                    :Well Name   
FLD     .         UNKNOWN                       :Field Name  
CNTY    .                                       :County
STAT    .                                       :State
CTRY    .                                       :Country
LOC     .                                       :Location
API     .                                       :API Number
DATE    .                                       :Date
COMP    .         NAM                           :Company Name
SRVC    .                                       :Service Company
~Parameter Information
#MNEM   .UNITS    VALUE                          DESCRIPTION
#----   ------    -----                          -----------
TDL     .M        3700.00000                    :Total Depth (Logger)
TDD     .M        3700.00000                    :Total Depth (Driller)   
UBID    .         2571                          :Unique Borehole Id  
PDAT    .         Mean Sea Level                :Permanent Datum 
EPD     .M           0.00000                    :Elevation of Permanent Datum (PDAT) above Mean Sea Level
LMF     .         Rotary Table                  :Logging Measured From (Name of Logging Elevation Reference) 
APD     .M           3.77000                    :Elevation of Depth Reference (LMF) Above Permanent Datum
~Curve Information
#MNEM   .UNITS    API CODE                       CURVE DESCRIPTION
#----   ------    --------                       -----------------
DEPT    .M                                      :1     Index curve
GR      .GAPI                                   :2     SNAM  
DT      .US/F                                   :3     SNAM  
RHOB    .G/C3                                   :4     SNAM  
DRHO    .G/C3                                   :5     SNAM  
NPHI    .V/V                                    :6     SNAM  
~Ascii Log Data
    3688.8003    122.216843   -999.250000      2.669157     -0.002885   -999.250000
    3688.7003    122.511719   -999.250000      2.669874     -0.002564   -999.250000
    3688.6003    123.663330   -999.250000      2.669091     -0.002655   -999.250000
    3688.5003    125.954300   -999.250000      2.668619     -0.003445   -999.250000
    3688.4003    129.191833   -999.250000      2.669386     -0.005035   -999.250000
    3688.3003    129.066254   -999.250000      2.671444     -0.006382   -999.250000
    3688.2003    126.314240   -999.250000      2.673918     -0.007627   -999.250000
    3688.1003    123.543961   -999.250000      2.676305     -0.009320   -999.250000
    3688.0003    121.442978   -999.250000      2.675236     -0.010715   -999.250000
    3687.9003    120.725464   -999.250000      2.671511     -0.011800   -999.250000
    3687.8003    121.891235   -999.250000      2.666854     -0.012922   -999.250000
    3687.7003    123.950058   -999.250000      2.663182     -0.013309   -999.250000
    3687.6003    125.980392   -999.250000      2.660676     -0.012666   -999.250000
    3687.5003    127.400177   -999.250000      2.659244     -0.010892   -999.250000
    3687.4003    127.421875   -999.250000      2.659718     -0.008276   -999.250000
    3687.3003    126.385956   -999.250000      2.661237     -0.006093   -999.250000
    3687.2003    125.520950   -999.250000      2.662438     -0.006114   -999.250000
    3687.1003    125.693924   -999.250000      2.664647     -0.007950   -999.250000
    3687.0003    126.591248   -999.250000      2.667336     -0.011130   -999.250000
    3686.9003    127.530197   -999.250000      2.667944     -0.015897   -999.250000
    3686.8003    128.465668   -999.250000      2.668601     -0.019912   -999.250000
    3686.7003    129.005554   -999.250000      2.671713     -0.021530   -999.250000
    3686.6003    128.482513   -999.250000      2.677964     -0.021423   -999.250000
    3686.5003    127.579666   -999.250000      2.690979     -0.019354   -999.250000
    3686.4003    126.831223   -999.250000      2.711372     -0.015312   -999.250000
    3686.3003    125.515335   -999.250000      2.732592     -0.010643   -999.250000
    3686.2003    123.768173   -999.250000      2.746471     -0.006286   -999.250000
    3686.1003    122.406967   -999.250000      2.748353     -0.002853   -999.250000
    3686.0003    121.663193   -999.250000      2.739487     -0.001058   -999.250000
    3685.9003    121.900436   -999.250000      2.724198     -0.001174   -999.250000
    3685.8003    123.182190   -999.250000      2.708977     -0.002911   -999.250000
    3685.7003    124.691086   -999.250000      2.698995     -0.006028   -999.250000
    3685.6003    125.807205   -999.250000      2.694402     -0.009385   -999.250000
    3685.5003    126.428711   -999.250000      2.691290     -0.011192   -999.250000
    3685.4003    126.460541   -999.250000      2.688415     -0.010269   -999.250000
    3685.3003    126.188721   -999.250000      2.685035     -0.005716   -999.250000
    3685.2003    126.018127   -999.250000      2.679765      0.002287   -999.250000
    3685.1003    125.542526   -999.250000      2.672534      0.012485   -999.250000
    3685.0003    124.252182   -999.250000      2.664767      0.023213   -999.250000
    3684.9003    122.474564   -999.250000      2.657862      0.032729   -999.250000
    3684.8003    121.148651   -999.250000      2.652830      0.038648   -999.250000
    3684.7003    120.983917   -999.250000      2.651184      0.041391   -999.250000
    3684.6003    121.910599   -999.250000      2.654373      0.044850   -999.250000
    3684.5003    123.353149   -999.250000      2.662050      0.051543   -999.250000
    3684.4003    124.561661   -999.250000      2.672240      0.062451   -999.250000
    3684.3003    125.068237   -999.250000      2.683243      0.078362   -999.250000
    3684.2003    124.944061   -999.250000      2.694021      0.099202   -999.250000
    3684.1003    124.822617   -999.250000      2.706326      0.126336   -999.250000
    3684.0003    125.421539   -999.250000      2.721735      0.161038   -999.250000
    3683.9003    126.855804   -999.250000      2.736145      0.199336   -999.250000
    3683.8003    128.488617   -999.250000      2.744617      0.234217   -999.250000
    3683.7003    129.615662   -999.250000      2.746209      0.259496   -999.250000
    3683.6003    130.281708   -999.250000      2.740660      0.272028   -999.250000
    3683.5003    130.973175   -999.250000      2.728155      0.272038   -999.250000
    3683.4003    131.736084   -999.250000      2.710362      0.261987   -999.250000
    3683.3003    132.232574   -999.250000      2.686301      0.244271   -999.250000
    3683.2003    132.310394   -999.250000      2.652023      0.217407   -999.250000
    3683.1003    131.575623   -999.250000      2.611080      0.179853   -999.250000
    3683.0003    128.970337   -999.250000      2.584591      0.142982   -999.250000
    3682.9003    124.976700   -999.250000      2.588151      0.121315   -999.250000
    3682.8003    122.031525   -999.250000      2.612331      0.116044   -999.250000
    3682.7003    121.130295   -999.250000      2.642873      0.123675   -999.250000
    3682.6003    121.589371   -999.250000      2.661191      0.137050   -999.250000
    3682.5003    123.191452   -999.250000      2.638377      0.141816   -999.250000
    3682.4003    125.148148   -999.250000      2.569043      0.131954   -999.250000
    3682.3003    126.048264   -999.250000      2.461397      0.110425   -999.250000
    3682.2003    125.832077   -999.250000      2.307838      0.078159   -999.250000
    3682.1003    125.755692   -999.250000      2.127724      0.042226   -999.250000
    3682.0003    126.606506   -999.250000      1.970014      0.015828   -999.250000
    3681.9003    128.172058   -999.250000      1.870816      0.008332   -999.250000
    3681.8003    130.299316   -999.250000      1.840272      0.020777   -999.250000
    3681.7003    132.634216   -999.250000      1.864809      0.045995      0.441571
    3681.6003    133.920410   -999.250000      1.908039      0.069746      0.423091
    3681.5003    133.408264   -999.250000      1.930778      0.079193      0.390654
    3681.4003    131.459412   -999.250000      1.911908      0.070470      0.345809
    3681.3003    128.763794   -999.250000      1.857886      0.051437      0.301465
    3681.2003    126.118591   -999.250000      1.808551      0.035118      0.265819
    3681.1003    124.247940   -999.250000      1.809671      0.029429      0.239807
    3681.0003    123.539124   -999.250000      1.881824      0.032590      0.230272
    3680.9003    123.466721   -999.250000      2.018635      0.043773      0.233801
    3680.8003    123.160614   -999.250000      2.218847      0.068093      0.240804
    3680.7003    122.424637   -999.250000      2.433400      0.102159      0.245295
    3680.6003    121.819595     68.679413      2.601681      0.133818      0.248363
    3680.5003    122.133209     68.583801      2.665359      0.147759      0.253097
    3680.4003    123.550919     68.727081      2.667212      0.147730      0.256910
    3680.3003    125.891663     68.885010      2.654080      0.138692      0.259573
    3680.2003    128.464935     69.048431      2.636307      0.119279      0.264206
    3680.1003    129.817749     69.162079      2.628250      0.107066      0.270792
    3680.0003    129.588165     69.271286      2.624675      0.104905      0.282253
    3679.9003    129.004913     69.542404      2.591669      0.095743      0.308366
    3679.8003    129.421082     69.751892      2.541653      0.089836      0.353352
    3679.7003    130.331818     69.734528      2.470942      0.089598      0.411493
    3679.6003    129.086853     69.715393      2.313289      0.070519      0.460565
    3679.5003    123.974838     69.768112      2.106269      0.047452      0.475064
    3679.4003    115.374832     69.845016      1.906132      0.035322      0.451822
    3679.3003    105.657639     69.893097      1.838001      0.042797      0.400541
