# LAS format data
~Version Information
VERS.     2.00: CWLS LOG ASCII STANDARD - VERSION 2.0
WRAP.       NO: ONE LINE PER DEPTH STEP
~Well Information
#MNEM   .UNITS    DATA                           DESCRIPTION
#----   ------    ----                           -----------
STRT    .M        3688.8003                     :First Index Value
STOP    .M        30.2001                       :Last Index Value
STEP    .M        -0.1000                       :Frame Spacing
NULL    .         -999.2500                     :Absent Value
WELL    .         CAPELLE-01                    :Well Name   
FLD     .         UNKNOWN                       :Field Name  
CNTY    .                                       :County
STAT    .                                       :State
CTRY    .                                       :Country
LOC     .                                       :Location
API     .                                       :API Number
DATE    .                                       :Date
COMP    .         NAM                           :Company Name
SRVC    .                                       :Service Company
~Parameter Information
#MNEM   .UNITS    VALUE                          DESCRIPTION
#----   ------    -----                          -----------
TDL     .M        3700.00000                    :Total Depth (Logger)
TDD     .M        3700.00000                    :Total Depth (Driller)   
UBID    .         2571                          :Unique Borehole Id  
PDAT    .         Mean Sea Level                :Permanent Datum 
EPD     .M           0.00000                    :Elevation of Permanent Datum (PDAT) above Mean Sea Level
LMF     .         Rotary Table                  :Logging Measured From (Name of Logging Elevation Reference) 
APD     .M           3.77000                    :Elevation of Depth Reference (LMF) Above Permanent Datum
~Curve Information
#MNEM   .UNITS    API CODE                       CURVE DESCRIPTION
#----   ------    --------                       -----------------
DEPT    .M                                      :1     Index curve
GR      .GAPI                                   :2     SNAM  
DT      .US/F                                   :3     SNAM  
RHOB    .G/C3                                   :4     SNAM  
DRHO    .G/C3                                   :5     SNAM  
NPHI    .V/V                                    :6     SNAM  
~Ascii Log Data
# ...
    1605.6002     81.473206    101.188889      2.432017      0.008285      0.403161
    1605.5002     79.568619    101.996353      2.413971      0.006627      0.407962
    1605.4002     77.098587    101.887589      2.399489      0.008978      0.411251
    1605.3002     74.511826    100.938065      2.388820      0.015375      0.417827
    1605.2002     72.271362     99.417175      2.389022      0.025513      0.425636
    1605.1002     70.735855     97.448792      2.405921      0.035022      0.429429
    1605.0002     69.944183     94.965408      2.428563      0.031754      0.429841
    1604.9002     69.058426     92.395126      2.454747      0.022998      0.427982
    1604.8002     67.121399     90.203506      2.486873      0.023773      0.422640
    1604.7002     64.442276     88.114120      2.498073      0.029851      0.412081
    1604.6002     61.689995     85.917038      2.491857      0.040021      0.394304
    1604.5002     59.157784     83.759705      2.490270      0.057450      0.365831
    1604.4002     57.162552     81.842209      2.483939      0.061341      0.328893
    1604.3002     55.392792     80.306183      2.473674      0.048142      0.290866
    1604.2002     53.249420     78.989273      2.473601      0.028784      0.257181
    1604.1002     51.134682     77.205139      2.474629      0.012077      0.233614
    1604.0002     49.418289     74.646988      2.472072      0.000658      0.216373
    1603.9002     48.186852     72.072769      2.473087     -0.003302      0.198041
    1603.8002     47.614365     70.530106      2.480101     -0.003170      0.176191
    1603.7002     48.116447     70.374756      2.491436     -0.002068      0.151830
    1603.6002     50.345879     71.217819      2.504042     -0.001687      0.130584
    1603.5002     54.185562     73.093521      2.514923     -0.002725      0.125823
    1603.4002     59.290115     76.303665      2.521283     -0.004269      0.141751
    1603.3002     64.633621     79.871582      2.512214     -0.001655      0.181568
    1603.2002     68.569809     82.012787      2.498831      0.013810      0.228805
    1603.1002     70.064056     81.902588      2.486870      0.040669      0.270771
    1603.0002     69.087967     81.450027      2.462605      0.055615      0.295596
    1602.9002     66.037994     80.989410      2.443115      0.066426      0.303915
    1602.8002     61.989265     79.911545      2.439503      0.079664      0.299519
    1602.7002     58.984428     78.432358      2.424684      0.066893      0.285711
    1602.6002     56.818993     77.572495      2.416039      0.045023      0.268413
    1602.5002     55.084030     77.971390      2.430528      0.030342      0.251885
    1602.4002     54.494926     77.495560      2.448782      0.014573      0.242297
    1602.3002     54.600426     76.656586      2.465144     -0.000569      0.243708
    1602.2002     54.819695     77.831558      2.479470     -0.009389      0.257351
    1602.1002     55.706078     81.162216      2.483277     -0.002245      0.281069
    1602.0002     57.743881     85.872314      2.476138      0.013928      0.302554
    1601.9002     60.437950     91.561630      2.459546      0.030530      0.312812
    1601.8002     61.756676     99.398773      2.431696      0.044596      0.325231
    1601.7002     61.983597    108.391495      2.381733      0.052250      0.348749
    1601.6002     62.306610    114.774216      2.293441      0.047986      0.385916
    1601.5002     61.987877    118.909668      2.160177      0.044290      0.436840
    1601.4002     61.542847    121.851608      2.021029      0.044693      0.484200
    1601.3002     61.922867    124.576050      1.918059      0.045037      0.512233
    1601.2002     61.660835    126.406235      1.859624      0.037803      0.524315
    1601.1002     60.784340    126.991394      1.841251      0.025005      0.524186
    1601.0002     60.642326    127.224243      1.870650      0.013596      0.509919
    1600.9002     60.320854    127.551895      1.925293      0.008541      0.502680
    1600.8002     59.883369    127.212189      1.969273      0.007960      0.507935
    1600.7002     61.142418    124.631470      1.977189      0.006618      0.511831
    1600.6002     63.601471    119.682632      1.940159      0.003552      0.517739
    1600.5002     66.355316    113.282394      1.881286      0.000691      0.522698
    1600.4002     69.695862    106.606644      1.841374      0.000087      0.507405
    1600.3002     72.770828    100.642426      1.848784      0.000605      0.471737
    1600.2002     74.502396     95.768814      1.911397      0.001637      0.428177
    1600.1002     74.776367     92.946365      2.037722      0.006124      0.388130
    1600.0002     74.194290     92.883224      2.197350      0.013682      0.363737
    1599.9002     73.403717     94.837067      2.342951      0.022723      0.356898
    1599.8002     72.811172     96.609940      2.428616      0.033419      0.361364
    1599.7002     72.442566     97.159592      2.449046      0.041039      0.369386
    1599.6002     72.135864     97.521500      2.436873      0.041743      0.378094
    1599.5002     71.715576     98.323990      2.411116      0.039151      0.388307
    1599.4002     70.638199     99.238739      2.383270      0.038483      0.398967
    1599.3002     68.720490    100.162460      2.358775      0.040074      0.407995
    1599.2002     66.814911    101.986755      2.341545      0.040873      0.415929
    1599.1002     65.537247    104.509552      2.338513      0.043767      0.420306
    1599.0002     64.941162    105.998886      2.354021      0.052498      0.417638
    1598.9002     65.183060    105.745087      2.379878      0.060139      0.410753
    1598.8002     66.221222    104.167419      2.407774      0.063750      0.401312
    1598.7002     67.817688    101.463837      2.434009      0.066567      0.388352
    1598.6002     70.057785     98.022446      2.452461      0.064335      0.375045
    1598.5002     72.896149     94.988083      2.463246      0.056165      0.364847
    1598.4002     75.753006     93.405167      2.475477      0.050648      0.357731
    1598.3002     78.018631     92.948868      2.490929      0.050820      0.353980
    1598.2002     79.347733     92.875885      2.502590      0.052634      0.353613
    1598.1002     79.693954     92.993668      2.505289      0.052135      0.355303
    1598.0002     79.116791     92.851395      2.501868      0.048771      0.358794
    1597.9002     77.782944     92.033630      2.497665      0.043451      0.363437
    1597.8002     76.031509     90.945038      2.495591      0.037715      0.366692
    1597.7002     74.377029     90.002838      2.498868      0.035163      0.366361
    1597.6002     73.517288     89.035843      2.507601      0.037111      0.362806
    1597.5002     73.837128     87.839066      2.517478      0.041159      0.357271
    1597.4002     74.777939     86.706924      2.527165      0.047265      0.348918
    1597.3002     75.336212     85.961075      2.535089      0.053529      0.336141
    1597.2002     75.030273     85.483810      2.535261      0.052139      0.319045
    1597.1002     73.871170     85.197159      2.527312      0.040334      0.299909
    1597.0002     72.298660     85.065247      2.517960      0.023847      0.281947
    1596.9002     71.049164     84.998535      2.511594      0.008579      0.268034
    1596.8002     70.432190     85.487808      2.508700     -0.001923      0.260626
    1596.7002     70.105301     86.881958      2.505637     -0.005524      0.262035
    1596.6002     69.793884     88.225677      2.498555     -0.000150      0.273654
    1596.5002     69.751740     88.628235      2.492908      0.016474      0.293221
    1596.4002     70.158005     88.583420      2.492870      0.039629      0.314556
    1596.3002     70.600967     88.711319      2.490977      0.057556      0.330716
    1596.2002     70.699188     88.353897      2.487697      0.069019      0.337833
    1596.1002     70.418106     86.803986      2.484459      0.075730      0.334963
