# LAS format data
~Version Information
VERS.     2.00: CWLS LOG ASCII STANDARD - VERSION 2.0
WRAP.       NO: ONE LINE PER DEPTH STEP
~Well Information
#MNEM   .UNITS    DATA                           DESCRIPTION
#----   ------    ----                           -----------
STRT    .M        3688.8003                     :First Index Value
STOP    .M        30.2001                       :Last Index Value
STEP    .M        -0.1000                       :Frame Spacing
NULL    .         -999.2500                     :Absent Value
WELL    .         CAPELLE-01                    :Well Name   
FLD     .         UNKNOWN                       :Field Name  
CNTY    .                                       :County
STAT    .                                       :State
CTRY    .                                       :Country
LOC     .                                       :Location
API     .                                       :API Number
DATE    .                                       :Date
COMP    .         NAM                           :Company Name
SRVC    .                                       :Service Company
~Parameter Information
#MNEM   .UNITS    VALUE                          DESCRIPTION
#----   ------    -----                          -----------
TDL     .M        3700.00000                    :Total Depth (Logger)
TDD     .M        3700.00000                    :Total Depth (Driller)   
UBID    .         2571                          :Unique Borehole Id  
PDAT    .         Mean Sea Level                :Permanent Datum 
EPD     .M           0.00000                    :Elevation of Permanent Datum (PDAT) above Mean Sea Level
LMF     .         Rotary Table                  :Logging Measured From (Name of Logging Elevation Reference) 
APD     .M           3.77000                    :Elevation of Depth Reference (LMF) Above Permanent Datum
~Curve Information
#MNEM   .UNITS    API CODE                       CURVE DESCRIPTION
#----   ------    --------                       -----------------
DEPT    .M                                      :1     Index curve
GR      .GAPI                                   :2     SNAM  
DT      .US/F                                   :3     SNAM  
RHOB    .G/C3                                   :4     SNAM  
DRHO    .G/C3                                   :5     SNAM  
NPHI    .V/V                                    :6     SNAM  
~Ascii Log Data
# ...
    3352.8004    145.651428     64.407806      2.702893     -0.013917      0.118202
    3352.7004    148.738831     64.367706      2.706307     -0.014755      0.119585
    3352.6004    146.556824     64.487381      2.705438     -0.016489      0.121891
    3352.5004    140.041779     64.663376      2.702427     -0.018441      0.124355
    3352.4004    131.184235     64.982620      2.699780     -0.020495      0.127387
    3352.3004    123.512909     65.323975      2.701614     -0.021138      0.132060
    3352.2004    118.293518     65.591599      2.709422     -0.019810      0.138476
    3352.1004    114.772079     65.878113      2.720125     -0.018492      0.142249
    3352.0004    112.736832     66.069946      2.730388     -0.017274      0.144953
    3351.9004    112.359436     66.027786      2.738949     -0.015723      0.148201
    3351.8004    112.747162     66.053787      2.747332     -0.011666      0.147714
    3351.7004    113.833023     66.121475      2.751647     -0.007486      0.145323
    3351.6004    115.857285     65.979706      2.747389     -0.005731      0.143341
    3351.5004    118.244232     65.736847      2.734895     -0.005224      0.135013
    3351.4004    121.249054     65.371246      2.718908     -0.005675      0.122662
    3351.3004    124.704132     64.747879      2.703211     -0.007841      0.110273
    3351.2004    126.522736     64.023849      2.695632     -0.010144      0.102195
    3351.1004    125.592117     63.376236      2.694546     -0.011772      0.099880
    3351.0004    122.168350     62.998322      2.696907     -0.012516      0.104304
    3350.9004    118.220444     62.895271      2.695485     -0.013810      0.111055
    3350.8004    114.493118     62.989326      2.690480     -0.015102      0.114863
    3350.7004    110.827194     63.111076      2.686595     -0.014567      0.111888
    3350.6004    107.752502     63.123169      2.689417     -0.012929      0.103334
    3350.5004    105.271164     62.952965      2.698149     -0.011555      0.093163
    3350.4004    102.877472     62.503113      2.708872     -0.011377      0.083994
    3350.3004    102.357498     61.631775      2.718000     -0.011974      0.076817
    3350.2004    104.533905     60.518539      2.723660     -0.012948      0.070362
    3350.1004    108.581955     59.651535      2.725102     -0.014686      0.062879
    3350.0004    113.931305     59.193710      2.723465     -0.016211      0.058378
    3349.9004    119.677734     59.068359      2.720087     -0.016531      0.059937
    3349.8004    124.931458     59.299583      2.714311     -0.015527      0.067722
    3349.7004    129.485443     59.872475      2.709578     -0.013894      0.081081
    3349.6004    133.345276     60.736511      2.708023     -0.012781      0.096900
    3349.5004    136.009583     61.872795      2.707417     -0.013099      0.112038
    3349.4004    137.529083     63.151321      2.710335     -0.014620      0.125597
    3349.3004    138.207947     64.414322      2.717427     -0.016485      0.139143
    3349.2004    137.647980     65.466003      2.721256     -0.018095      0.153016
    3349.1004    136.474640     66.200317      2.720864     -0.018160      0.165541
    3349.0004    135.641876     66.706390      2.719854     -0.016177      0.175217
    3348.9004    135.054749     67.169815      2.715452     -0.013634      0.181140
    3348.8004    134.679443     67.702759      2.707738     -0.011724      0.182660
    3348.7004    134.454376     68.227081      2.700877     -0.010558      0.180650
    3348.6004    133.523773     68.592453      2.696704     -0.010688      0.177517
    3348.5004    131.613037     68.722336      2.695357     -0.011788      0.174125
    3348.4004    129.009155     68.632309      2.696400     -0.012729      0.169836
    3348.3004    125.342926     68.406570      2.699324     -0.012990      0.165780
    3348.2004    120.859894     68.192017      2.704557     -0.012193      0.162860
    3348.1004    116.978165     68.111252      2.712229     -0.010149      0.160303
    3348.0004    114.576202     68.123825      2.719486     -0.007687      0.157242
    3347.9004    113.659714     68.069778      2.723240     -0.005695      0.153699
    3347.8004    114.297729     67.872177      2.722481     -0.004682      0.150206
    3347.7004    116.353195     67.609650      2.717408     -0.005380      0.146604
    3347.6004    119.135071     67.368591      2.709342     -0.007649      0.142401
    3347.5004    122.089218     67.129593      2.700506     -0.010391      0.137412
    3347.4004    125.539810     66.838608      2.693191     -0.013147      0.131014
    3347.3004    129.385620     66.474548      2.689394     -0.015683      0.123278
    3347.2004    132.281250     66.069168      2.690034     -0.017379      0.116474
    3347.1004    133.279419     65.743301      2.694558     -0.018262      0.114013
    3347.0004    132.751221     65.677063      2.701890     -0.018828      0.117873
    3346.9004    131.752747     65.915604      2.710712     -0.019279      0.126972
    3346.8004    130.912537     66.295441      2.718270     -0.019715      0.138954
    3346.7004    130.322021     66.656570      2.721493     -0.020404      0.150578
    3346.6004    129.744995     67.012527      2.720263     -0.021245      0.158435
    3346.5004    128.769562     67.351501      2.717072     -0.021143      0.160434
    3346.4004    127.319626     67.506668      2.714723     -0.018967      0.156750
    3346.3004    125.746353     67.330170      2.714518     -0.014826      0.149209
    3346.2004    124.105225     66.877075      2.716181     -0.010025      0.141452
    3346.1004    122.068695     66.335388      2.717831     -0.006059      0.137015
    3346.0004    119.715805     65.863342      2.716750     -0.004041      0.136445
    3345.9004    117.807266     65.586792      2.711949     -0.004577      0.137352
    3345.8004    117.643265     65.505722      2.705009     -0.006889      0.135394
    3345.7004    120.307907     65.407455      2.698064     -0.008962      0.126392
    3345.6004    125.310623     65.081879      2.691385     -0.010201      0.109936
    3345.5004    130.745392     64.407486      2.685162     -0.011198      0.089497
    3345.4004    134.332367     63.312302      2.681767     -0.011573      0.070041
    3345.3004    134.143860     61.946671      2.681798     -0.011569      0.055425
    3345.2004    129.628418     60.683899      2.683571     -0.012073      0.047966
    3345.1004    122.476105     59.829025      2.686414     -0.012632      0.048854
    3345.0004    115.174591     59.450989      2.689042     -0.013025      0.055935
    3344.9004    109.449478     59.456146      2.689579     -0.013977      0.064794
    3344.8004    106.255447     59.737236      2.688402     -0.015488      0.071790
    3344.7004    104.856949     60.162186      2.687839     -0.016820      0.074262
    3344.6004    103.387756     60.539772      2.689752     -0.017341      0.072514
    3344.5004    101.303299     60.734467      2.693526     -0.017006      0.072175
    3344.4004     99.922470     60.785133      2.696785     -0.016202      0.079439
    3344.3004    101.166840     60.888321      2.696990     -0.015613      0.096841
    3344.2004    105.846436     61.268173      2.693302     -0.016113      0.122065
    3344.1004    113.535568     62.089844      2.687546     -0.016919      0.150449
    3344.0004    122.850128     63.380569      2.682706     -0.016204      0.175413
    3343.9004    131.900085     65.039307      2.679945     -0.014620      0.190445
    3343.8004    138.735565     66.795334      2.679777     -0.013113      0.195331
    3343.7004    142.152405     68.216095      2.682668     -0.011622      0.193387
    3343.6004    142.522003     69.113266      2.684905     -0.011170      0.186995
    3343.5004    140.742950     69.487564      2.685173     -0.011685      0.179796
    3343.4004    137.963684     69.555252      2.686325     -0.011427      0.176634
    3343.3004    136.246460     69.552811      2.686262     -0.011040      0.177718
