# LAS format data
~Version Information
VERS.     2.00: CWLS LOG ASCII STANDARD - VERSION 2.0
WRAP.       NO: ONE LINE PER DEPTH STEP
~Well Information
#MNEM   .UNITS    DATA                           DESCRIPTION
#----   ------    ----                           -----------
STRT    .M        3688.8003                     :First Index Value
STOP    .M        30.2001                       :Last Index Value
STEP    .M        -0.1000                       :Frame Spacing
NULL    .         -999.2500                     :Absent Value
WELL    .         CAPELLE-01                    :Well Name   
FLD     .         UNKNOWN                       :Field Name  
CNTY    .                                       :County
STAT    .                                       :State
CTRY    .                                       :Country
LOC     .                                       :Location
API     .                                       :API Number
DATE    .                                       :Date
COMP    .         NAM                           :Company Name
SRVC    .                                       :Service Company
~Parameter Information
#MNEM   .UNITS    VALUE                          DESCRIPTION
#----   ------    -----                          -----------
TDL     .M        3700.00000                    :Total Depth (Logger)
TDD     .M        3700.00000                    :Total Depth (Driller)   
UBID    .         2571                          :Unique Borehole Id  
PDAT    .         Mean Sea Level                :Permanent Datum 
EPD     .M           0.00000                    :Elevation of Permanent Datum (PDAT) above Mean Sea Level
LMF     .         Rotary Table                  :Logging Measured From (Name of Logging Elevation Reference) 
APD     .M           3.77000                    :Elevation of Depth Reference (LMF) Above Permanent Datum
~Curve Information
#MNEM   .UNITS    API CODE                       CURVE DESCRIPTION
#----   ------    --------                       -----------------
DEPT    .M                                      :1     Index curve
GR      .GAPI                                   :2     SNAM  
DT      .US/F                                   :3     SNAM  
RHOB    .G/C3                                   :4     SNAM  
DRHO    .G/C3                                   :5     SNAM  
NPHI    .V/V                                    :6     SNAM  
~Ascii Log Data
# ...
     588.0001     50.724495    150.623047      2.085479      0.027654      0.422157
     587.9001     50.510109    150.637817      2.087101      0.028297      0.425716
     587.8001     50.042061    151.100067      2.085896      0.025823      0.425016
     587.7001     49.833069    151.117157      2.085063      0.022432      0.423805
     587.6001     50.160927    150.334686      2.084558      0.018710      0.423688
     587.5001     50.722839    149.382446      2.081643      0.014784      0.425663
     587.4001     51.012047    148.657837      2.073660      0.011804      0.432046
     587.3001     50.752907    148.123322      2.060395      0.009623      0.439341
     587.2001     50.012100    147.711151      2.045280      0.007441      0.441647
     587.1001     49.052452    147.657196      2.033002      0.005922      0.439002
     587.0001     48.286972    148.029388      2.024815      0.004647      0.434991
     586.9001     47.993935    148.657776      2.018459      0.002689      0.432284
     586.8001     48.094025    149.382660      2.012910      0.001101      0.431763
     586.7001     48.204536    149.758575      2.007558      0.000284      0.433938
     586.6001     47.775269    149.418854      2.003286     -0.000539      0.436963
     586.5001     46.425880    148.861450      2.004355     -0.000877      0.435291
     586.4001     44.553917    148.881317      2.013346     -0.000368      0.426106
     586.3001     43.020035    149.220947      2.028516      0.000663      0.413001
     586.2001     42.257782    148.745117      2.046656      0.002558      0.401149
     586.1001     42.212822    147.127563      2.062401      0.004955      0.394024
     586.0001     42.654755    145.583191      2.069221      0.006336      0.393623
     585.9001     43.254150    145.364624      2.064197      0.005917      0.400175
     585.8001     43.803551    146.585022      2.050615      0.003904      0.408668
     585.7001     44.271698    148.599823      2.035505      0.000886      0.413885
     585.6001     44.655212    150.658234      2.025086     -0.002082      0.418790
     585.5001     45.029243    152.271729      2.021433     -0.003947      0.426660
     585.4001     45.462784    153.193726      2.023221     -0.004163      0.433014
     585.3001     45.896805    153.474274      2.027506     -0.002864      0.432599
     585.2001     46.466423    153.291534      2.030463     -0.000986      0.426130
     585.1001     47.435310    152.698975      2.028756      0.000079      0.417080
     585.0001     48.579056    151.733582      2.021975     -0.000570      0.406952
     584.9001     49.332458    150.693298      2.012878     -0.002537      0.399877
     584.8001     49.457130    149.959473      2.004916     -0.004684      0.400506
     584.7001     49.052742    149.545715      1.999983     -0.006437      0.404046
     584.6001     48.243736    149.270477      1.999503     -0.007150      0.404633
     584.5001     47.238167    149.078003      2.004514     -0.005861      0.404872
     584.4001     46.500465    148.877014      2.012915     -0.003152      0.407613
     584.3001     46.346100    148.645782      2.021468     -0.000723      0.413741
     584.2001     46.606873    148.686096      2.028888      0.000464      0.425027
     584.1001     46.950455    149.279816      2.033378      0.000104      0.438324
     584.0001     47.038269    150.271423      2.034581     -0.001840      0.446854
     583.9001     46.538132    151.256866      2.035689     -0.004620      0.446947
     583.8001     45.517570    152.114441      2.038717     -0.005738      0.440901
     583.7001     44.534744    152.925385      2.042312     -0.003586      0.435305
     583.6001     44.220917    153.568695      2.043090      0.000593      0.435523
     583.5001     44.787544    153.977478      2.037427      0.004989      0.438731
     583.4001     45.966682    154.377625      2.024266      0.008497      0.441372
     583.3001     47.173180    154.971985      2.007438      0.009945      0.445434
     583.2001     47.889015    155.519409      1.990802      0.009835      0.445473
     583.1001     47.969254    155.714355      1.973250      0.009096      0.440626
     583.0001     47.690536    155.878906      1.949270      0.007557      0.449610
     582.9001     47.482162    156.478577      1.915679      0.006886      0.468878
     582.8001     47.618263    157.588745      1.871840      0.009542      0.485458
     582.7001     48.179077    158.653625      1.826036      0.016518      0.503818
     582.6001     49.262711    159.009674      1.794916      0.028705      0.517778
     582.5001     50.863037    158.300201      1.790414      0.044477      0.516662
     582.4001     52.481583    156.891724      1.798868      0.052760      0.509154
     582.3001     53.247360    154.867218      1.811325      0.052955      0.500739
     582.2001     52.668419    152.152954      1.828150      0.050918      0.489383
     582.1001     51.581604    149.549988      1.839303      0.046465      0.475915
     582.0001     50.659401    147.652740      1.844559      0.039578      0.461948
     581.9001     50.131531    146.860535      1.851777      0.033114      0.449451
     581.8001     50.436562    147.393616      1.864735      0.032792      0.440733
     581.7001     51.242607    149.303955      1.875819      0.035892      0.436159
     581.6001     51.771019    152.043976      1.871866      0.034264      0.435850
     581.5001     52.325684    154.555054      1.869002      0.031039      0.439053
     581.4001     53.129829    156.346375      1.875690      0.027916      0.443900
     581.3001     53.695755    157.904266      1.887791      0.021241      0.448453
     581.2001     53.560699    159.003998      1.908778      0.016002      0.452771
     581.1001     53.085983    158.794495      1.935121      0.014797      0.455586
     581.0001     53.077911    156.859589      1.949676      0.015442      0.452639
     580.9001     52.906197    154.194305      1.957624      0.017253      0.443941
     580.8001     52.200745    153.484711      1.964228      0.019741      0.431712
     580.7001     51.545914    158.240479      1.968082      0.020124      0.416317
     580.6001     50.561043    163.793823      1.974440      0.018869      0.404497
     580.5001     49.316086    164.087891      1.985441      0.016823      0.399930
     580.4001     49.575577    158.840118      1.998265      0.012116      0.410472
     580.3001     51.765953    152.780640      2.007073      0.007349      0.426767
     580.2001     54.839066    150.261902      2.009560      0.004411      0.440924
     580.1001     56.992020    149.355225      2.001257      0.003303      0.450038
     580.0001     58.199799    148.461426      1.987275      0.004481      0.454945
     579.9001     58.944046    147.315491      1.970781      0.008464      0.457304
     579.8001     58.203148    146.598358      1.957953      0.011844      0.465630
     579.7001     56.643677    146.860352      1.950495      0.014935      0.471667
     579.6001     55.418381    148.125977      1.948339      0.019376      0.467334
     579.5001     54.740486    148.775177      1.943221      0.017517      0.456094
     579.4001     54.573219    148.861420      1.936708      0.011969      0.443263
     579.3001     54.876419    149.826508      1.933530      0.007710      0.430406
     579.2001     55.243889    151.181671      1.933475      0.004650      0.427636
     579.1001     55.084785    152.437134      1.934933      0.002227      0.429932
     579.0001     54.195320    153.678131      1.937584      0.001053      0.429151
     578.9001     53.500984    154.817596      1.940651      0.001587      0.434246
     578.8001     53.537323    155.870361      1.943472      0.003266      0.443893
     578.7001     54.321426    156.948914      1.945321      0.005497      0.448362
     578.6001     55.801781    158.595886      1.946150      0.008370      0.450262
     578.5001     57.243858    163.551788      1.947015      0.012668      0.451556
