# LAS format data
~Version Information
VERS.     2.00: CWLS LOG ASCII STANDARD - VERSION 2.0
WRAP.       NO: ONE LINE PER DEPTH STEP
~Well Information
#MNEM   .UNITS    DATA                           DESCRIPTION
#----   ------    ----                           -----------
STRT    .M        3688.8003                     :First Index Value
STOP    .M        30.2001                       :Last Index Value
STEP    .M        -0.1000                       :Frame Spacing
NULL    .         -999.2500                     :Absent Value
WELL    .         CAPELLE-01                    :Well Name   
FLD     .         UNKNOWN                       :Field Name  
CNTY    .                                       :County
STAT    .                                       :State
CTRY    .                                       :Country
LOC     .                                       :Location
API     .                                       :API Number
DATE    .                                       :Date
COMP    .         NAM                           :Company Name
SRVC    .                                       :Service Company
~Parameter Information
#MNEM   .UNITS    VALUE                          DESCRIPTION
#----   ------    -----                          -----------
TDL     .M        3700.00000                    :Total Depth (Logger)
TDD     .M        3700.00000                    :Total Depth (Driller)   
UBID    .         2571                          :Unique Borehole Id  
PDAT    .         Mean Sea Level                :Permanent Datum 
EPD     .M           0.00000                    :Elevation of Permanent Datum (PDAT) above Mean Sea Level
LMF     .         Rotary Table                  :Logging Measured From (Name of Logging Elevation Reference) 
APD     .M           3.77000                    :Elevation of Depth Reference (LMF) Above Permanent Datum
~Curve Information
#MNEM   .UNITS    API CODE                       CURVE DESCRIPTION
#----   ------    --------                       -----------------
DEPT    .M                                      :1     Index curve
GR      .GAPI                                   :2     SNAM  
DT      .US/F                                   :3     SNAM  
RHOB    .G/C3                                   :4     SNAM  
DRHO    .G/C3                                   :5     SNAM  
NPHI    .V/V                                    :6     SNAM  
~Ascii Log Data
# ...
     751.2001     59.972054    132.320343      2.042910      0.027528      0.406034
     751.1001     59.814583    132.333282      2.093614      0.033020      0.402679
     751.0001     59.682953    131.618835      2.115225      0.035643      0.400484
     750.9001     59.359428    130.392242      2.123057      0.040002      0.400250
     750.8001     58.422050    129.379333      2.118564      0.044537      0.388352
     750.7001     57.016472    128.924805      2.106366      0.046923      0.371230
     750.6001     55.857063    129.037994      2.093044      0.046128      0.362541
     750.5001     55.875954    129.875519      2.084896      0.042233      0.361936
     750.4001     57.226440    131.460571      2.083132      0.034958      0.365186
     750.3001     59.284309    133.340210      2.088542      0.023852      0.370113
     750.2001     60.896111    134.679291      2.102445      0.015439      0.371166
     750.1001     61.316910    135.007172      2.119071      0.010313      0.370658
     750.0001     60.327339    134.189301      2.126970      0.005477      0.375272
     749.9001     58.799576    132.723053      2.129855      0.002791      0.382674
     749.8001     57.746330    130.913544      2.131670      0.002453      0.392344
     749.7001     58.049316    129.190308      2.131864      0.003008      0.406574
     749.6001     59.793785    127.917831      2.134617      0.004326      0.415911
     749.5001     62.257980    127.437897      2.140753      0.006206      0.418274
     749.4001     64.302994    127.919327      2.147200      0.007699      0.418157
     749.3001     65.211426    129.162537      2.152171      0.008135      0.416355
     749.2001     64.674026    130.743774      2.155449      0.007551      0.412503
     749.1001     62.761208    131.858856      2.158035      0.006667      0.405798
     749.0001     60.632011    132.678558      2.160621      0.006291      0.406438
     748.9001     59.183403    133.553558      2.163129      0.006692      0.415932
     748.8001     58.309471    134.386261      2.163988      0.007913      0.414689
     748.7001     57.962875    133.718506      2.164920      0.011221      0.409957
     748.6001     57.950943    129.950165      2.166964      0.016870      0.409375
     748.5001     57.236488    124.286942      2.171132      0.023989      0.405107
     748.4001     55.894920    118.973801      2.171626      0.024883      0.405909
     748.3001     54.783195    115.906677      2.164484      0.014873      0.418451
     748.2001     54.938141    114.276550      2.168935      0.009540      0.434048
     748.1001     56.004684    114.528717      2.176309      0.008143      0.443663
     748.0001     57.343338    118.638809      2.173590      0.005478      0.443349
     747.9001     59.298973    126.268295      2.170993      0.007266      0.433235
     747.8001     61.018608    133.505035      2.168100      0.010120      0.419714
     747.7001     61.536942    135.905884      2.159313      0.008234      0.407719
     747.6001     61.099548    135.292236      2.151285      0.004193      0.402428
     747.5001     60.304123    134.411987      2.145486      0.000938      0.406955
     747.4001     59.424507    133.881317      2.138170     -0.000955      0.421176
     747.3001     58.900093    133.296753      2.131042     -0.001118      0.430338
     747.2001     58.810471    132.341766      2.124959     -0.000521      0.434017
     747.1001     58.801460    131.325867      2.118237     -0.000374      0.442616
     747.0001     58.542366    130.813171      2.111845     -0.000786      0.447521
     746.9001     57.946823    130.896545      2.106324     -0.001454      0.444517
     746.8001     57.120438    131.256897      2.101469     -0.002380      0.439833
     746.7001     56.295464    131.825714      2.098153     -0.003687      0.436858
     746.6001     55.884384    132.611023      2.096944     -0.005172      0.435119
     746.5001     56.371216    133.293304      2.097859     -0.006176      0.434610
     746.4001     57.613731    133.694366      2.099582     -0.006364      0.438013
     746.3001     59.064713    133.900513      2.100662     -0.005967      0.443679
     746.2001     60.260170    133.958954      2.100803     -0.005145      0.445481
     746.1001     60.927109    133.896515      2.101271     -0.003627      0.445713
     746.0001     61.022308    133.680359      2.103360     -0.001210      0.448202
     745.9001     60.755791    133.202209      2.106551      0.001655      0.449887
     745.8001     60.743965    132.432190      2.108715      0.004323      0.451879
     745.7001     61.250908    131.793457      2.108930      0.006232      0.455422
     745.6001     61.791115    131.871277      2.109060      0.006986      0.454552
     745.5001     62.171967    132.194916      2.109419      0.006649      0.447915
     745.4001     62.392555    131.935608      2.109091      0.005930      0.438692
     745.3001     61.936485    131.523285      2.109413      0.005728      0.426314
     745.2001     60.637352    131.502380      2.111038      0.005834      0.413259
     745.1001     59.182365    131.596588      2.113132      0.005349      0.404638
     745.0001     58.331558    131.624084      2.116134      0.004273      0.398730
     744.9001     58.377144    131.638306      2.120622      0.002897      0.391983
     744.8001     59.115715    131.633545      2.124841      0.001436      0.385632
     744.7001     60.138435    131.641571      2.125175      0.000564      0.383872
     744.6001     60.931396    131.699249      2.120498      0.000921      0.387234
     744.5001     61.255394    131.771729      2.113734      0.002436      0.392704
     744.4001     61.473930    131.838959      2.107688      0.004758      0.400324
     744.3001     61.950142    131.885773      2.104698      0.007554      0.408988
     744.2001     62.455986    131.894043      2.105673      0.010310      0.414580
     744.1001     62.458046    131.949768      2.107392      0.012127      0.416937
     744.0001     61.784111    132.223938      2.103818      0.013292      0.421058
     743.9001     60.884918    132.810516      2.090059      0.017111      0.430918
     743.8001     60.510292    133.589386      2.064865      0.027811      0.444744
     743.7001     61.156128    134.253265      2.030511      0.045107      0.458036
     743.6001     62.737350    134.529510      1.991631      0.062793      0.466615
     743.5001     64.587769    134.412811      1.957186      0.073257      0.465864
     743.4001     65.736572    134.215729      1.935967      0.071351      0.458067
     743.3001     65.654617    134.279144      1.932181      0.056841      0.453416
     743.2001     64.776871    134.641907      1.948121      0.036432      0.456620
     743.1001     63.962616    135.117371      1.980546      0.019713      0.463877
     743.0001     63.672218    135.562012      2.017544      0.011268      0.469028
     742.9001     64.043213    135.862274      2.045884      0.009240      0.465963
     742.8001     65.095398    135.833435      2.060379      0.009248      0.453373
     742.7001     66.505325    135.409668      2.063880      0.008718      0.439392
     742.6001     67.719147    134.925751      2.061246      0.007615      0.435821
     742.5001     68.644897    134.889496      2.056449      0.006700      0.447145
     742.4001     69.592163    135.408142      2.053187      0.006204      0.466940
     742.3001     70.316254    136.051971      2.053493      0.005988      0.483981
     742.2001     70.238159    136.328156      2.056478      0.006285      0.487878
     742.1001     69.417252    136.103363      2.060450      0.008741      0.474222
     742.0001     68.240982    135.384979      2.065638      0.016847      0.452519
     741.9001     67.033981    134.340454      2.069515      0.030495      0.434047
     741.8001     66.197052    133.530975      2.065215      0.042684      0.416763
     741.7001     65.979980    133.360535      2.055871      0.048904      0.399503
