# LAS format data
~Version Information
VERS.     2.00: CWLS LOG ASCII STANDARD - VERSION 2.0
WRAP.       NO: ONE LINE PER DEPTH STEP
~Well Information
#MNEM   .UNITS    DATA                           DESCRIPTION
#----   ------    ----                           -----------
STRT    .M        3688.8003                     :First Index Value
STOP    .M        30.2001                       :Last Index Value
STEP    .M        -0.1000                       :Frame Spacing
NULL    .         -999.2500                     :Absent Value
WELL    .         CAPELLE-01                    :Well Name   
FLD     .         UNKNOWN                       :Field Name  
CNTY    .                                       :County
STAT    .                                       :State
CTRY    .                                       :Country
LOC     .                                       :Location
API     .                                       :API Number
DATE    .                                       :Date
COMP    .         NAM                           :Company Name
SRVC    .                                       :Service Company
~Parameter Information
#MNEM   .UNITS    VALUE                          DESCRIPTION
#----   ------    -----                          -----------
TDL     .M        3700.00000                    :Total Depth (Logger)
TDD     .M        3700.00000                    :Total Depth (Driller)   
UBID    .         2571                          :Unique Borehole Id  
PDAT    .         Mean Sea Level                :Permanent Datum 
EPD     .M           0.00000                    :Elevation of Permanent Datum (PDAT) above Mean Sea Level
LMF     .         Rotary Table                  :Logging Measured From (Name of Logging Elevation Reference) 
APD     .M           3.77000                    :Elevation of Depth Reference (LMF) Above Permanent Datum
~Curve Information
#MNEM   .UNITS    API CODE                       CURVE DESCRIPTION
#----   ------    --------                       -----------------
DEPT    .M                                      :1     Index curve
GR      .GAPI                                   :2     SNAM  
DT      .US/F                                   :3     SNAM  
RHOB    .G/C3                                   :4     SNAM  
DRHO    .G/C3                                   :5     SNAM  
NPHI    .V/V                                    :6     SNAM  
~Ascii Log Data
# ...
    1432.8003     36.089951     88.626633      2.327442      0.029776      0.255947
    1432.7003     35.262306     90.035065      2.314568      0.024860      0.255806
    1432.6003     34.456619     91.686295      2.294626      0.014444      0.252627
    1432.5003     34.198135     93.675751      2.281978      0.006200      0.249560
    1432.4003     34.364761     94.796143      2.278448      0.002974      0.248521
    1432.3003     34.257423     92.962326      2.276625      0.003840      0.249920
    1432.2003     33.791161     91.281647      2.277276      0.007147      0.254276
    1432.1003     32.966576     91.617859      2.282508      0.011935      0.258609
    1432.0003     31.682579     90.990891      2.291922      0.018220      0.256336
    1431.9003     30.938915     89.358154      2.305513      0.025195      0.249525
    1431.8003     31.400936     88.354340      2.320733      0.031492      0.243875
    1431.7003     32.819206     87.448059      2.328100      0.033715      0.243613
    1431.6003     35.336830     86.449570      2.326180      0.030481      0.250319
    1431.5003     38.544167     85.897247      2.320415      0.023263      0.260291
    1431.4003     40.837097     85.574677      2.316244      0.015459      0.265408
    1431.3003     42.057404     85.246765      2.314713      0.010271      0.264836
    1431.2003     42.744530     85.201950      2.312899      0.008944      0.263229
    1431.1003     42.396141     85.720001      2.307103      0.010276      0.263388
    1431.0003     40.982635     86.714294      2.296798      0.012972      0.266490
    1430.9003     39.362686     87.932617      2.283888      0.015833      0.272898
    1430.8003     38.040482     89.190384      2.268305      0.016532      0.281901
    1430.7003     37.127182     89.888763      2.252003      0.014615      0.289205
    1430.6003     36.470543     89.231079      2.239348      0.011996      0.290400
    1430.5003     35.809250     87.275986      2.235395      0.010172      0.285605
    1430.4003     35.218033     84.953796      2.247354      0.011873      0.274941
    1430.3003     35.053062     83.219772      2.279176      0.018836      0.258654
    1430.2003     35.404732     82.465240      2.324107      0.027725      0.241347
    1430.1003     36.069267     82.962143      2.365614      0.034344      0.228855
    1430.0003     36.695251     85.113434      2.386124      0.036519      0.223407
    1429.9003     36.911171     88.763382      2.372947      0.031187      0.225302
    1429.8003     36.742546     92.632111      2.333556      0.020642      0.230690
    1429.7003     36.562805     94.891815      2.291598      0.012830      0.232690
    1429.6003     36.387405     94.523926      2.263895      0.010205      0.227361
    1429.5003     35.747391     92.591980      2.253163      0.009305      0.216632
    1429.4003     34.221672     91.149094      2.253914      0.007966      0.205799
    1429.3003     31.914654     90.920013      2.259894      0.006592      0.199076
    1429.2003     29.407825     91.161713      2.265597      0.005960      0.197162
    1429.1003     27.211605     91.424942      2.267703      0.005858      0.198321
    1429.0003     25.508553     91.822876      2.265007      0.005831      0.201526
    1428.9003     24.288403     92.234085      2.257894      0.005674      0.206555
    1428.8003     23.627697     92.030807      2.248318      0.005195      0.213394
    1428.7003     23.625084     90.723755      2.240702      0.004323      0.222444
    1428.6003     24.232513     88.696671      2.240805      0.003563      0.233105
    1428.5003     25.261707     87.023422      2.252519      0.004448      0.242746
    1428.4003     26.429920     86.419739      2.274086      0.008968      0.249937
    1428.3003     27.523819     86.579315      2.296583      0.017694      0.256517
    1428.2003     28.478138     86.939987      2.308866      0.028633      0.263869
    1428.1003     29.360268     87.591446      2.307977      0.038107      0.269467
    1428.0003     30.353661     88.785843      2.299148      0.040657      0.270293
    1427.9003     31.747799     89.972336      2.289032      0.032111      0.267270
    1427.8003     33.793449     90.525864      2.287403      0.017721      0.262209
    1427.7003     36.408943     90.647827      2.297648      0.007774      0.257538
    1427.6003     39.254425     90.899643      2.306661      0.005115      0.257968
    1427.5003     42.092384     91.541779      2.303905      0.007249      0.264494
    1427.4003     44.730347     92.245605      2.291956      0.011763      0.273615
    1427.3003     46.889900     92.405716      2.275775      0.015660      0.283354
    1427.2003     48.158485     91.928101      2.262027      0.017468      0.292494
    1427.1003     47.930077     91.297455      2.259928      0.019271      0.299212
    1427.0003     45.709549     90.699738      2.273559      0.024048      0.302987
    1426.9003     41.948761     89.668015      2.294926      0.029344      0.303733
    1426.8003     37.754402     88.040009      2.316956      0.031965      0.301519
    1426.7003     33.922127     86.815857      2.346347      0.036802      0.298105
    1426.6003     30.973476     86.756683      2.378197      0.044870      0.295850
    1426.5003     29.002388     87.392014      2.395552      0.053287      0.294968
    1426.4003     27.457790     88.360504      2.399116      0.069666      0.293356
    1426.3003     26.037560     90.067566      2.392241      0.093825      0.292149
    1426.2003     25.006493     92.838638      2.367771      0.112391      0.295896
    1426.1003     24.439011     95.608444      2.333207      0.119525      0.305298
    1426.0003     24.140072     97.238800      2.302240      0.118265      0.316701
    1425.9003     23.913319     97.408157      2.279691      0.109751      0.325188
    1425.8003     23.516270     95.648117      2.261573      0.092107      0.324922
    1425.7003     22.946625     92.355621      2.250648      0.069071      0.316617
    1425.6003     22.461323     89.471649      2.261080      0.049242      0.305843
    1425.5003     22.130989     88.009583      2.283640      0.032939      0.296562
    1425.4003     21.856991     87.597687      2.305529      0.023169      0.290014
    1425.3003     21.668552     87.436386      2.319960      0.035836      0.287059
    1425.2003     21.777279     87.745758      2.306877      0.054617      0.285567
    1425.1003     22.203819     88.789322      2.265662      0.066167      0.285752
    1425.0003     22.653477     89.531082      2.245589      0.079486      0.293427
    1424.9003     23.111980     89.681152      2.245150      0.087257      0.300669
    1424.8003     23.615158     89.644135      2.252628      0.084840      0.299951
    1424.7003     23.895527     89.653000      2.289178      0.092243      0.288517
    1424.6003     24.028545     89.420395      2.322377      0.098464      0.272485
    1424.5003     24.365166     88.953369      2.324754      0.089482      0.257625
    1424.4003     25.174282     89.366547      2.313199      0.070545      0.258956
    1424.3003     26.047150     89.763763      2.303373      0.047960      0.271582
    1424.2003     26.283699     88.300949      2.301893      0.026250      0.286987
    1424.1003     25.668617     86.514771      2.314222      0.018309      0.297866
    1424.0003     25.057117     85.495316      2.331776      0.021831      0.302715
    1423.9003     25.309238     85.446579      2.342523      0.032007      0.300754
    1423.8003     25.974892     85.754196      2.327062      0.038614      0.293491
    1423.7003     26.869316     86.598862      2.294274      0.040056      0.285377
    1423.6003     28.032730     88.578003      2.260645      0.036640      0.280733
    1423.5003     29.018921     90.305832      2.243542      0.029161      0.279842
    1423.4003     30.346752     91.111938      2.242503      0.021028      0.281612
    1423.3003     33.159523     91.356506      2.255494      0.016796      0.285947
