# LAS format data
~Version Information
VERS.     2.00: CWLS LOG ASCII STANDARD - VERSION 2.0
WRAP.       NO: ONE LINE PER DEPTH STEP
~Well Information
#MNEM   .UNITS    DATA                           DESCRIPTION
#----   ------    ----                           -----------
STRT    .M        3688.8003                     :First Index Value
STOP    .M        30.2001                       :Last Index Value
STEP    .M        -0.1000                       :Frame Spacing
NULL    .         -999.2500                     :Absent Value
WELL    .         CAPELLE-01                    :Well Name   
FLD     .         UNKNOWN                       :Field Name  
CNTY    .                                       :County
STAT    .                                       :State
CTRY    .                                       :Country
LOC     .                                       :Location
API     .                                       :API Number
DATE    .                                       :Date
COMP    .         NAM                           :Company Name
SRVC    .                                       :Service Company
~Parameter Information
#MNEM   .UNITS    VALUE                          DESCRIPTION
#----   ------    -----                          -----------
TDL     .M        3700.00000                    :Total Depth (Logger)
TDD     .M        3700.00000                    :Total Depth (Driller)   
UBID    .         2571                          :Unique Borehole Id  
PDAT    .         Mean Sea Level                :Permanent Datum 
EPD     .M           0.00000                    :Elevation of Permanent Datum (PDAT) above Mean Sea Level
LMF     .         Rotary Table                  :Logging Measured From (Name of Logging Elevation Reference) 
APD     .M           3.77000                    :Elevation of Depth Reference (LMF) Above Permanent Datum
~Curve Information
#MNEM   .UNITS    API CODE                       CURVE DESCRIPTION
#----   ------    --------                       -----------------
DEPT    .M                                      :1     Index curve
GR      .GAPI                                   :2     SNAM  
DT      .US/F                                   :3     SNAM  
RHOB    .G/C3                                   :4     SNAM  
DRHO    .G/C3                                   :5     SNAM  
NPHI    .V/V                                    :6     SNAM  
~Ascii Log Data
# ...
    1778.4002     30.587830     82.883820      2.320644      0.010806      0.196929
    1778.3002     30.599468     83.278214      2.310958      0.010473      0.205542
    1778.2002     30.381668     83.665909      2.300671      0.010457      0.212512
    1778.1002     30.018997     84.055649      2.290525      0.010454      0.217011
    1778.0002     29.576195     84.480469      2.281014      0.010454      0.219633
    1777.9002     29.189594     84.920547      2.273946      0.010513      0.221107
    1777.8002     28.895374     85.291489      2.271178      0.010878      0.221548
    1777.7002     28.582706     85.532730      2.272841      0.011995      0.220672
    1777.6002     28.116112     85.618271      2.277785      0.014218      0.217951
    1777.5002     27.410240     85.535583      2.283442      0.017937      0.213691
    1777.4002     26.533352     85.274551      2.286943      0.023367      0.209483
    1777.3002     25.723003     84.897125      2.287243      0.029276      0.206892
    1777.2002     25.288109     84.570435      2.284687      0.033316      0.206207
    1777.1002     25.481197     84.465759      2.279786      0.033673      0.206665
    1777.0002     26.286366     84.642242      2.273895      0.030356      0.207517
    1776.9002     27.442924     85.006882      2.269111      0.025078      0.208447
    1776.8002     28.703064     85.364975      2.268161      0.019553      0.209359
    1776.7002     29.962368     85.467148      2.273892      0.015123      0.210085
    1776.6002     31.220852     85.056900      2.287611      0.013470      0.210353
    1776.5002     32.480927     84.052414      2.307637      0.016134      0.209717
    1776.4002     33.741913     82.760529      2.330416      0.023536      0.207112
    1776.3002     34.978081     81.564972      2.353433      0.034867      0.201499
    1776.2002     36.077950     80.603577      2.374687      0.047966      0.193515
    1776.1002     36.791161     79.992645      2.389800      0.059551      0.184915
    1776.0002     36.798660     79.953598      2.392917      0.065406      0.177644
    1775.9002     36.047157     80.525269      2.384542      0.063032      0.174239
    1775.8002     34.828171     81.317795      2.371515      0.053906      0.177081
    1775.7002     33.524506     81.645340      2.359565      0.041469      0.186818
    1775.6002     32.585617     81.077972      2.353333      0.029565      0.201933
    1775.5002     32.702744     79.827591      2.355831      0.022289      0.220678
    1775.4002     34.444107     78.468140      2.362629      0.021731      0.244526
    1775.3002     37.628052     77.296890      2.363071      0.027239      0.276601
    1775.2002     41.375069     76.269531      2.341135      0.037429      0.314014
    1775.1002     44.935074     75.434113      2.282910      0.048631      0.350726
    1775.0002     48.069443     75.133392      2.196315      0.053631      0.382598
    1774.9002     50.564018     75.697144      2.102885      0.049666      0.404737
    1774.8002     52.357872     76.964310      2.010926      0.042338      0.418401
    1774.7002     53.847328     78.523972      1.919461      0.037037      0.430214
    1774.6002     55.451836     80.104462      1.839471      0.036126      0.443239
    1774.5002     57.189919     81.379852      1.799355      0.040971      0.455901
    1774.4002     58.765297     81.760712      1.810769      0.050040      0.463225
    1774.3002     59.973846     80.982330      1.852176      0.058404      0.464740
    1774.2002     60.915611     79.421051      1.902706      0.060571      0.463498
    1774.1002     61.746925     77.788177      1.950074      0.056309      0.459877
    1774.0002     62.578735     76.558990      1.976790      0.049552      0.452761
    1773.9002     63.455025     76.074661      1.965306      0.042451      0.442441
    1773.8002     64.179993     77.187088      1.920091      0.035883      0.431573
    1773.7002     64.410614     80.725494      1.862534      0.031425      0.423924
    1773.6002     64.123077     86.335175      1.809906      0.029764      0.420962
    1773.5002     63.707680     93.038956      1.769113      0.032041      0.421737
    1773.4002     63.597763    100.698883      1.764353      0.043892      0.429406
    1773.3002     64.010239    108.062119      1.795676      0.063099      0.449629
    1773.2002     64.783661    112.059814      1.845884      0.079792      0.473636
    1773.1002     65.216934    112.283035      1.909875      0.092627      0.485518
    1773.0002     64.709946    110.242462      1.980431      0.100864      0.485728
    1772.9002     63.451164    107.487350      2.045489      0.097244      0.476538
    1772.8002     61.918602    105.236237      2.047948      0.083819      0.462792
    1772.7002     60.358467    104.086349      1.968310      0.067832      0.456756
    1772.6002     58.757263    104.110214      1.852944      0.054164      0.460754
    1772.5002     57.332985    105.580963      1.728605      0.050853      0.471446
    1772.4002     56.734100    107.816650      1.674428      0.057426      0.483640
    1772.3002     57.133896    108.199890      1.686718      0.068654      0.493770
    1772.2002     58.059349    104.086838      1.720121      0.080924      0.492682
    1772.1002     58.907776     96.347885      1.763052      0.092926      0.471199
    1772.0002     59.232529     87.306015      1.854824      0.105361      0.432783
    1771.9002     59.019623     77.517242      2.001333      0.118975      0.387865
    1771.8002     58.477798     69.410843      2.128651      0.135099      0.336212
    1771.7002     57.893524     65.207520      2.191489      0.151562      0.286858
    1771.6002     57.723938     64.815002      2.169189      0.160022      0.266824
    1771.5002     58.683228     65.987732      2.088016      0.159008      0.263385
    1771.4002     60.661072     67.268692      2.039648      0.132111      0.263279
    1771.3002     62.960022     68.684860      2.023284      0.107382      0.263899
    1771.2002     65.166534     70.590744      2.058266      0.093544      0.263599
    1771.1002     66.595139     72.546677      2.156804      0.091915      0.259414
    1771.0002     66.615417     74.532349      2.240785      0.108810      0.250952
    1770.9002     64.167786     76.855927      2.302299      0.135186      0.241572
    1770.8002     60.401360     79.480408      2.358968      0.157689      0.232652
    1770.7002     56.271828     82.148132      2.378482      0.149209      0.223847
    1770.6002     52.099228     84.335403      2.365003      0.119701      0.217054
    1770.5002     48.037407     86.111755      2.344543      0.083203      0.215562
    1770.4002     44.031242     87.570068      2.324816      0.053219      0.219628
    1770.3002     40.557663     88.163727      2.315095      0.036394      0.226011
    1770.2002     38.749916     87.946426      2.313142      0.028864      0.232267
    1770.1002     37.921974     87.769028      2.311118      0.023541      0.238662
    1770.0002     37.227196     88.012146      2.305465      0.018592      0.244849
    1769.9002     36.403671     88.644333      2.300143      0.013720      0.250763
    1769.8002     35.495224     89.239304      2.298947      0.009661      0.255814
    1769.7002     34.657143     89.370453      2.302894      0.008961      0.260180
    1769.6002     34.127617     88.987305      2.313054      0.010852      0.264568
    1769.5002     34.333939     88.247147      2.326291      0.015254      0.268803
    1769.4002     35.696663     87.378174      2.337827      0.021650      0.271771
    1769.3002     37.969414     86.455933      2.347634      0.027938      0.271192
    1769.2002     40.276581     85.566330      2.349802      0.030413      0.265311
    1769.1002     41.561569     84.849442      2.340203      0.028492      0.256188
    1769.0002     40.854126     84.540634      2.324630      0.022928      0.246837
    1768.9002     38.831329     84.613815      2.309122      0.015649      0.238691
