# LAS format data
~Version Information
VERS.     2.00: CWLS LOG ASCII STANDARD - VERSION 2.0
WRAP.       NO: ONE LINE PER DEPTH STEP
~Well Information
#MNEM   .UNITS    DATA                           DESCRIPTION
#----   ------    ----                           -----------
STRT    .M        3688.8003                     :First Index Value
STOP    .M        30.2001                       :Last Index Value
STEP    .M        -0.1000                       :Frame Spacing
NULL    .         -999.2500                     :Absent Value
WELL    .         CAPELLE-01                    :Well Name   
FLD     .         UNKNOWN                       :Field Name  
CNTY    .                                       :County
STAT    .                                       :State
CTRY    .                                       :Country
LOC     .                                       :Location
API     .                                       :API Number
DATE    .                                       :Date
COMP    .         NAM                           :Company Name
SRVC    .                                       :Service Company
~Parameter Information
#MNEM   .UNITS    VALUE                          DESCRIPTION
#----   ------    -----                          -----------
TDL     .M        3700.00000                    :Total Depth (Logger)
TDD     .M        3700.00000                    :Total Depth (Driller)   
UBID    .         2571                          :Unique Borehole Id  
PDAT    .         Mean Sea Level                :Permanent Datum 
EPD     .M           0.00000                    :Elevation of Permanent Datum (PDAT) above Mean Sea Level
LMF     .         Rotary Table                  :Logging Measured From (Name of Logging Elevation Reference) 
APD     .M           3.77000                    :Elevation of Depth Reference (LMF) Above Permanent Datum
~Curve Information
#MNEM   .UNITS    API CODE                       CURVE DESCRIPTION
#----   ------    --------                       -----------------
DEPT    .M                                      :1     Index curve
GR      .GAPI                                   :2     SNAM  
DT      .US/F                                   :3     SNAM  
RHOB    .G/C3                                   :4     SNAM  
DRHO    .G/C3                                   :5     SNAM  
NPHI    .V/V                                    :6     SNAM  
~Ascii Log Data
# ...
    1951.2002     74.051056     67.988190      2.670884      0.098405      0.130785
    1951.1002     71.713364     66.209641      2.682162      0.109375      0.124459
    1951.0002     69.298508     64.986725      2.686305      0.112202      0.117733
    1950.9002     67.852997     64.761612      2.688128      0.102471      0.111541
    1950.8002     68.094833     65.865692      2.693668      0.084130      0.111112
    1950.7002     70.007828     67.683441      2.701652      0.062376      0.123951
    1950.6002     72.597946     69.764969      2.704494      0.042834      0.151803
    1950.5002     74.834671     72.040176      2.699728      0.029116      0.187191
    1950.4002     76.267700     74.140579      2.676575      0.024514      0.209924
    1950.3002     76.797058     75.026749      2.644075      0.024949      0.224064
    1950.2002     76.816406     75.100555      2.615744      0.030285      0.236122
    1950.1002     76.403763     75.103149      2.587817      0.038501      0.244996
    1950.0002     75.465851     75.383530      2.559829      0.047318      0.246960
    1949.9002     74.493912     76.034180      2.539863      0.055463      0.240947
    1949.8002     73.882248     77.055862      2.532373      0.063980      0.230934
    1949.7002     73.746750     78.216339      2.530914      0.067663      0.221100
    1949.6002     74.189667     79.390381      2.523502      0.067969      0.216658
    1949.5002     75.712112     80.593460      2.496444      0.066269      0.221173
    1949.4002     77.978317     81.681290      2.447487      0.065933      0.247690
    1949.3002     80.093719     82.008804      2.395933      0.067691      0.270097
    1949.2002     80.843216     81.379456      2.357338      0.070050      0.282988
    1949.1002     79.570877     80.513489      2.329470      0.074476      0.294049
    1949.0002     76.788986     80.053940      2.313058      0.082658      0.298455
    1948.9002     73.730667     80.085754      2.313738      0.095148      0.294256
    1948.8002     71.377396     80.291077      2.340353      0.113651      0.283764
    1948.7002     70.788147     80.704529      2.379241      0.137223      0.270780
    1948.6002     71.703827     81.390259      2.415482      0.167987      0.260030
    1948.5002     73.140610     82.237000      2.445291      0.189821      0.255409
    1948.4002     74.415222     83.139740      2.456646      0.195204      0.258159
    1948.3002     75.074524     84.052902      2.447021      0.188553      0.270846
    1948.2002     75.129807     84.850067      2.418814      0.173095      0.291670
    1948.1002     74.846222     85.038910      2.380711      0.156030      0.314575
    1948.0002     74.494446     84.530884      2.342729      0.145763      0.335368
    1947.9002     74.257584     83.943222      2.305708      0.143195      0.350801
    1947.8002     74.307877     83.652740      2.271087      0.142947      0.355968
    1947.7002     74.656021     83.689926      2.239038      0.140517      0.350307
    1947.6002     75.086090     84.129120      2.218373      0.135265      0.337907
    1947.5002     75.348755     84.912323      2.217930      0.128699      0.325153
    1947.4002     75.463257     85.738922      2.234986      0.122914      0.315439
    1947.3002     75.683853     86.301300      2.259273      0.119698      0.308813
    1947.2002     76.387863     86.687546      2.281653      0.118963      0.304701
    1947.1002     77.876556     87.104080      2.302574      0.119280      0.302919
    1947.0002     80.065948     87.569214      2.323130      0.119579      0.302347
    1946.9002     82.489609     88.056396      2.343581      0.119211      0.301238
    1946.8002     84.416626     88.532639      2.363327      0.117182      0.298836
    1946.7002     85.090744     88.944077      2.380565      0.112077      0.296510
    1946.6002     84.384460     89.249130      2.393008      0.103589      0.295718
    1946.5002     82.854156     89.425613      2.398491      0.093127      0.296673
    1946.4002     81.138687     89.461731      2.397332      0.082486      0.300395
    1946.3002     79.503891     89.344162      2.391720      0.073482      0.307849
    1946.2002     78.030518     89.077866      2.384065      0.068297      0.316838
    1946.1002     76.714081     88.685654      2.376682      0.068601      0.322653
    1946.0002     75.700378     88.217041      2.371210      0.074383      0.321984
    1945.9002     75.390762     87.772095      2.368504      0.083903      0.315130
    1945.8002     76.094650     87.519348      2.368086      0.095459      0.305094
    1945.7002     77.599167     87.689011      2.369084      0.106856      0.295888
    1945.6002     79.265915     88.359497      2.370920      0.115448      0.290781
    1945.5002     80.518448     89.374939      2.373062      0.118611      0.290375
    1945.4002     80.996338     90.485168      2.374810      0.115465      0.292511
    1945.3002     80.779449     91.414230      2.375045      0.109241      0.294485
    1945.2002     80.324326     91.944839      2.370289      0.105580      0.295561
    1945.1002     80.000656     92.064423      2.355557      0.108062      0.297056
    1945.0002     79.845886     91.891876      2.330711      0.115179      0.300430
    1944.9002     79.670441     91.553879      2.302013      0.122721      0.305191
    1944.8002     79.285858     91.314957      2.276111      0.128495      0.309869
    1944.7002     78.689850     91.382126      2.258550      0.132472      0.314080
    1944.6002     78.115280     91.602615      2.253498      0.134639      0.317795
    1944.5002     77.842148     91.675491      2.260046      0.135665      0.320584
    1944.4002     77.960495     91.393158      2.272651      0.137964      0.322233
    1944.3002     78.320038     90.645844      2.284706      0.144170      0.322501
    1944.2002     78.647476     89.518661      2.291263      0.154377      0.320203
    1944.1002     78.762360     88.325745      2.291359      0.166230      0.311700
    1944.0002     78.761337     87.305359      2.288062      0.177463      0.291907
    1943.9002     78.985229     86.501205      2.285115      0.184924      0.263334
    1943.8002     79.671036     86.001678      2.286125      0.183298      0.238314
    1943.7002     80.711838     85.946182      2.297017      0.170403      0.223780
    1943.6002     81.813538     86.427826      2.322835      0.150552      0.218311
    1943.5002     82.693253     87.424667      2.358898      0.129221      0.222648
    1943.4002     83.201447     88.833252      2.393324      0.109132      0.238980
    1943.3002     83.417206     90.690887      2.414268      0.094130      0.264970
    1943.2002     83.607574     93.066437      2.416802      0.089149      0.293701
    1943.1002     84.033936     95.603775      2.406173      0.093994      0.320251
    1943.0002     84.686523     97.417511      2.390718      0.103842      0.342101
    1942.9002     85.387177     97.763306      2.374804      0.113368      0.355829
    1942.8002     85.940659     96.558731      2.359046      0.120125      0.360850
    1942.7002     85.966736     94.565308      2.345859      0.124065      0.358043
    1942.6002     85.072235     92.690430      2.340544      0.126509      0.346471
    1942.5002     83.222931     91.246506      2.344310      0.128899      0.327338
    1942.4002     80.814728     89.781616      2.353462      0.131859      0.305638
    1942.3002     78.218735     87.748886      2.364522      0.136189      0.285577
    1942.2002     75.822571     86.180405      2.376056      0.141707      0.272184
    1942.1002     73.997757     85.729233      2.387500      0.147524      0.269135
    1942.0002     72.776001     86.084259      2.397132      0.152824      0.275759
    1941.9002     72.387375     87.030273      2.399201      0.155853      0.285480
    1941.8002     73.347809     88.442368      2.392017      0.156681      0.294793
    1941.7002     75.654236     89.869354      2.377805      0.156164      0.304271
