# LAS format data
~Version Information
VERS.     2.00: CWLS LOG ASCII STANDARD - VERSION 2.0
WRAP.       NO: ONE LINE PER DEPTH STEP
~Well Information
#MNEM   .UNITS    DATA                           DESCRIPTION
#----   ------    ----                           -----------
STRT    .M        3688.8003                     :First Index Value
STOP    .M        30.2001                       :Last Index Value
STEP    .M        -0.1000                       :Frame Spacing
NULL    .         -999.2500                     :Absent Value
WELL    .         CAPELLE-01                    :Well Name   
FLD     .         UNKNOWN                       :Field Name  
CNTY    .                                       :County
STAT    .                                       :State
CTRY    .                                       :Country
LOC     .                                       :Location
API     .                                       :API Number
DATE    .                                       :Date
COMP    .         NAM                           :Company Name
SRVC    .                                       :Service Company
~Parameter Information
#MNEM   .UNITS    VALUE                          DESCRIPTION
#----   ------    -----                          -----------
TDL     .M        3700.00000                    :Total Depth (Logger)
TDD     .M        3700.00000                    :Total Depth (Driller)   
UBID    .         2571                          :Unique Borehole Id  
PDAT    .         Mean Sea Level                :Permanent Datum 
EPD     .M           0.00000                    :Elevation of Permanent Datum (PDAT) above Mean Sea Level
LMF     .         Rotary Table                  :Logging Measured From (Name of Logging Elevation Reference) 
APD     .M           3.77000                    :Elevation of Depth Reference (LMF) Above Permanent Datum
~Curve Information
#MNEM   .UNITS    API CODE                       CURVE DESCRIPTION
#----   ------    --------                       -----------------
DEPT    .M                                      :1     Index curve
GR      .GAPI                                   :2     SNAM  
DT      .US/F                                   :3     SNAM  
RHOB    .G/C3                                   :4     SNAM  
DRHO    .G/C3                                   :5     SNAM  
NPHI    .V/V                                    :6     SNAM  
~Ascii Log Data
# ...
    3007.2005     68.524826     59.744431      2.697402     -0.007659      0.172141
    3007.1005     80.312454     61.935219      2.609407      0.004546      0.206418
    3007.0005     91.675949     64.623810      2.543027      0.023815      0.225519
    3006.9005    100.990662     67.035110      2.507408      0.037117      0.231037
    3006.8005    107.167892     68.789963      2.504821      0.040980      0.226168
    3006.7005    110.959579     70.079208      2.526057      0.035176      0.216959
    3006.6005    114.059586     71.233780      2.559588      0.015125      0.210197
    3006.5005    115.835205     72.242172      2.600987     -0.003211      0.205789
    3006.4005    115.627106     72.738937      2.644110     -0.008209      0.198987
    3006.3005    114.507111     72.388580      2.669553     -0.008605      0.184557
    3006.2005    112.538071     71.657272      2.683741     -0.008744      0.164734
    3006.1005    109.481277     70.963058      2.700081     -0.008365      0.143602
    3006.0005    106.608292     69.994781      2.717882     -0.010762      0.128253
    3005.9005    104.456375     68.840103      2.733147     -0.013767      0.127593
    3005.8005    102.873703     68.012680      2.741739     -0.015290      0.143848
    3005.7005    102.417206     67.943710      2.730003     -0.018677      0.167637
    3005.6005    103.685837     68.491455      2.708247     -0.022232      0.190777
    3005.5005    106.524994     69.225266      2.689494     -0.023567      0.208206
    3005.4005    109.613022     69.786713      2.674403     -0.026214      0.210547
    3005.3005    112.264114     70.231186      2.665345     -0.028936      0.203780
    3005.2005    113.943985     70.693695      2.666909     -0.028766      0.195431
    3005.1005    113.891403     70.952194      2.672898     -0.027861      0.184650
    3005.0005    113.054840     70.896729      2.680079     -0.026950      0.171697
    3004.9005    112.524246     70.566788      2.688476     -0.025401      0.159239
    3004.8005    111.154556     70.104172      2.697205     -0.023393      0.153998
    3004.7005    108.748505     69.624603      2.705913     -0.020983      0.154445
    3004.6005    106.221115     69.302048      2.713655     -0.018261      0.157216
    3004.5005    103.346680     69.073837      2.717808     -0.018384      0.157808
    3004.4005     99.501572     68.759460      2.721957     -0.021340      0.153337
    3004.3005     94.002823     67.962509      2.734544     -0.025631      0.141156
    3004.2005     86.026413     66.230576      2.750853     -0.031270      0.124906
    3004.1005     76.696335     64.033432      2.767705     -0.036027      0.109685
    3004.0005     68.551270     62.921257      2.787212     -0.033313      0.100505
    3003.9005     63.697868     61.554489      2.801803     -0.027693      0.110775
    3003.8005     62.243454     59.670815      2.806210     -0.022526      0.137715
    3003.7005     62.718925     59.616058      2.789433     -0.016840      0.172210
    3003.6005     65.537842     60.560013      2.761319     -0.013655      0.208104
    3003.5005     70.653748     61.658798      2.731894     -0.013602      0.239255
    3003.4005     77.383438     63.939629      2.707388     -0.012058      0.251541
    3003.3005     86.079315     66.564178      2.694194     -0.009436      0.252590
    3003.2005     95.436829     68.351608      2.692999     -0.006927      0.250998
    3003.1005    102.243683     69.912613      2.698332     -0.002303      0.245893
    3003.0005    105.446198     70.952927      2.700608      0.001578      0.240367
    3002.9005    107.298141     71.107391      2.696416      0.002777      0.235812
    3002.8005    110.844101     71.158386      2.693224      0.002184      0.226642
    3002.7005    115.514023     71.229462      2.696233      0.000194      0.207459
    3002.6005    118.856293     70.839676      2.708100     -0.002907      0.176301
    3002.5005    118.131744     69.967072      2.737785     -0.003273      0.137051
    3002.4005    112.547333     68.407074      2.776047     -0.002508      0.100775
    3002.3005    102.887711     65.812500      2.811364     -0.003978      0.074107
    3002.2005     91.806366     63.070679      2.834853     -0.006737      0.066015
    3002.1005     82.946686     61.311272      2.841820     -0.009681      0.072812
    3002.0005     78.113388     60.872849      2.830843     -0.012979      0.087520
    3001.9005     77.630264     61.440994      2.803677     -0.015676      0.111920
    3001.8005     80.730179     62.576454      2.769444     -0.016596      0.142266
    3001.7005     86.893875     64.165894      2.739221     -0.015169      0.169212
    3001.6005     94.912201     65.966370      2.719063     -0.012782      0.189300
    3001.5005    103.003723     67.588867      2.709988     -0.010005      0.200710
    3001.4005    109.159653     68.549942      2.711254     -0.006448      0.199279
    3001.3005    112.199142     68.728485      2.715735     -0.004576      0.185591
    3001.2005    112.184494     68.383011      2.721820     -0.006122      0.162089
    3001.1005    109.318512     67.724899      2.738119     -0.009894      0.129220
    3001.0005    103.717361     66.821701      2.767250     -0.013676      0.091171
    3000.9005     95.439377     65.578873      2.805915     -0.015127      0.056844
    3000.8005     84.872604     63.864716      2.848726     -0.012619      0.034045
    3000.7005     73.607025     61.700218      2.879582     -0.005920      0.025519
    3000.6005     64.083923     59.501587      2.885432      0.005128      0.027161
    3000.5005     58.121147     57.873497      2.871290      0.020140      0.030866
    3000.4005     56.053658     56.761292      2.844968      0.033507      0.031702
    3000.3005     56.629456     55.843048      2.814726      0.037032      0.028520
    3000.2005     57.092949     55.173904      2.794389      0.028739      0.021926
    3000.1005     55.350494     54.785561      2.795394      0.013777      0.014596
    3000.0005     50.945343     54.414703      2.816719      0.000227      0.010754
    2999.9005     44.412285     53.894325      2.846200     -0.008349      0.014185
    2999.8005     37.432755     53.385361      2.867886     -0.012732      0.027967
    2999.7005     32.627090     53.236351      2.871013     -0.015356      0.051793
    2999.6005     31.795391     53.577141      2.857222     -0.016542      0.079625
    2999.5005     35.049950     54.168282      2.838319     -0.014405      0.097591
    2999.4005     40.233292     54.751503      2.823136     -0.008541      0.095363
    2999.3005     44.247536     55.374306      2.807584     -0.001464      0.077648
    2999.2005     44.827583     55.956474      2.792522      0.005080      0.055597
    2999.1005     41.691193     56.248077      2.785859      0.010413      0.038328
    2999.0005     36.450615     56.422836      2.787495      0.011720      0.031734
    2998.9005     31.883926     56.903099      2.796992      0.008936      0.032232
    2998.8005     29.926632     57.529716      2.817311      0.005044      0.029819
    2998.7005     30.299412     57.562424      2.840884     -0.000491      0.021399
    2998.6005     31.000851     56.707153      2.860306     -0.008343      0.010816
    2998.5005     30.010666     55.523590      2.880216     -0.015380      0.001667
    2998.4005     26.438248     54.527451      2.904604     -0.019041     -0.004618
    2998.3005     20.962032     53.681175      2.930396     -0.019245     -0.008241
    2998.2005     15.498211     52.760910      2.951515     -0.017341     -0.009963
    2998.1005     11.582935     51.712967      2.964576     -0.015506     -0.010541
    2998.0005      9.523985     50.789253      2.970786     -0.014924     -0.010510
    2997.9005      8.943979     50.336525      2.973028     -0.015241     -0.010134
    2997.8005      9.377983     50.397339      2.973303     -0.016130     -0.009603
    2997.7005     10.222055     50.734245      2.973791     -0.016494     -0.009211
