# LAS format data
~Version Information
VERS.     2.00: CWLS LOG ASCII STANDARD - VERSION 2.0
WRAP.       NO: ONE LINE PER DEPTH STEP
~Well Information
#MNEM   .UNITS    DATA                           DESCRIPTION
#----   ------    ----                           -----------
STRT    .M        3688.8003                     :First Index Value
STOP    .M        30.2001                       :Last Index Value
STEP    .M        -0.1000                       :Frame Spacing
NULL    .         -999.2500                     :Absent Value
WELL    .         CAPELLE-01                    :Well Name   
FLD     .         UNKNOWN                       :Field Name  
CNTY    .                                       :County
STAT    .                                       :State
CTRY    .                                       :Country
LOC     .                                       :Location
API     .                                       :API Number
DATE    .                                       :Date
COMP    .         NAM                           :Company Name
SRVC    .                                       :Service Company
~Parameter Information
#MNEM   .UNITS    VALUE                          DESCRIPTION
#----   ------    -----                          -----------
TDL     .M        3700.00000                    :Total Depth (Logger)
TDD     .M        3700.00000                    :Total Depth (Driller)   
UBID    .         2571                          :Unique Borehole Id  
PDAT    .         Mean Sea Level                :Permanent Datum 
EPD     .M           0.00000                    :Elevation of Permanent Datum (PDAT) above Mean Sea Level
LMF     .         Rotary Table                  :Logging Measured From (Name of Logging Elevation Reference) 
APD     .M           3.77000                    :Elevation of Depth Reference (LMF) Above Permanent Datum
~Curve Information
#MNEM   .UNITS    API CODE                       CURVE DESCRIPTION
#----   ------    --------                       -----------------
DEPT    .M                                      :1     Index curve
GR      .GAPI                                   :2     SNAM  
DT      .US/F                                   :3     SNAM  
RHOB    .G/C3                                   :4     SNAM  
DRHO    .G/C3                                   :5     SNAM  
NPHI    .V/V                                    :6     SNAM  
~Ascii Log Data
# ...
    1269.6001     57.510735     94.182465      2.305947      0.100056      0.386679
    1269.5001     56.924110     92.705139      2.313852      0.092530      0.380814
    1269.4001     58.092377     91.429214      2.335795      0.087754      0.371962
    1269.3001     60.675079     91.193924      2.354621      0.084218      0.362994
    1269.2001     63.091782     91.545486      2.357828      0.075809      0.355957
    1269.1001     64.108093     91.752716      2.348773      0.061790      0.353300
    1269.0001     63.305984     91.639954      2.336819      0.046379      0.355601
    1268.9001     60.933464     91.203781      2.329597      0.035095      0.360605
    1268.8001     57.914810     90.093048      2.334317      0.033004      0.364420
    1268.7001     55.204597     88.178207      2.350616      0.037562      0.363033
    1268.6001     53.346031     86.263519      2.371407      0.041296      0.357544
    1268.5001     52.659843     85.741928      2.388971      0.040167      0.355844
    1268.4001     53.045654     86.875320      2.397418      0.034226      0.358529
    1268.3001     54.140083     88.602219      2.393312      0.025546      0.360886
    1268.2001     55.656013     90.238663      2.377756      0.017640      0.365278
    1268.1001     57.155022     91.836563      2.355978      0.012110      0.370795
    1268.0001     58.114220     93.428940      2.334969      0.009193      0.372571
    1267.9001     58.555801     94.740692      2.321362      0.009964      0.373463
    1267.8001     58.880951     95.419861      2.316176      0.014606      0.377529
    1267.7001     59.286781     95.180099      2.317791      0.022037      0.383283
    1267.6001     59.570427     94.121475      2.323568      0.029409      0.382633
    1267.5001     59.435837     92.397964      2.331391      0.035089      0.375466
    1267.4001     58.565987     90.105759      2.341036      0.038427      0.367238
    1267.3001     56.584534     87.420242      2.354174      0.037472      0.354825
    1267.2001     53.898254     84.979507      2.371703      0.031824      0.339675
    1267.1001     51.471352     83.714691      2.394597      0.022545      0.329745
    1267.0001     49.620651     83.760712      2.420761      0.012036      0.325304
    1266.9001     48.438148     84.456833      2.443845      0.003164      0.324844
    1266.8001     48.078018     84.685928      2.452422     -0.000203      0.329677
    1266.7001     48.160622     84.955414      2.446411      0.002043      0.336132
    1266.6001     48.326981     86.105072      2.430662      0.007689      0.341355
    1266.5001     48.810631     87.863449      2.409105      0.012843      0.346271
    1266.4001     50.264198     89.274582      2.388748      0.016626      0.352504
    1266.3001     52.781021     89.412628      2.372927      0.018858      0.359642
    1266.2001     55.794960     88.043777      2.360315      0.016010      0.364698
    1266.1001     58.546242     86.141220      2.351510      0.014152      0.368580
    1266.0001     60.062126     84.436111      2.348310      0.018482      0.371012
    1265.9001     58.661781     81.944077      2.362687      0.038877      0.358091
    1265.8001     55.245514     78.884262      2.384042      0.064865      0.336234
    1265.7001     51.162422     76.379349      2.403594      0.088048      0.312180
    1265.6001     47.163040     75.557266      2.421032      0.096860      0.285315
    1265.5001     43.721939     75.820572      2.435179      0.094503      0.262135
    1265.4001     40.965408     76.194168      2.444719      0.083890      0.246442
    1265.3001     38.912933     77.567749      2.439458      0.071560      0.240570
    1265.2001     37.823723     80.031204      2.422260      0.062776      0.239659
    1265.1001     37.996941     83.369965      2.393081      0.060420      0.240232
    1265.0001     39.035019     87.474228      2.355518      0.054171      0.241148
    1264.9001     41.146019     91.610504      2.318419      0.043145      0.242456
    1264.8001     44.974953     93.582443      2.293087      0.030297      0.244606
    1264.7001     49.640556     93.270828      2.293934      0.026324      0.243744
    1264.6001     54.504807     91.350204      2.316813      0.031703      0.239303
    1264.5001     59.217667     88.576767      2.362239      0.046072      0.231401
    1264.4001     62.530960     85.347092      2.426939      0.053057      0.217702
    1264.3001     64.644638     81.733200      2.508880      0.051642      0.204270
    1264.2001     66.355972     78.796524      2.609107      0.050135      0.204772
    1264.1001     68.378586     77.889328      2.676776      0.053734      0.225920
    1264.0001     71.886627     78.928452      2.693325      0.062055      0.259509
    1263.9001     77.701141     80.181824      2.644289      0.071910      0.289911
    1263.8001     83.562927     80.802048      2.576314      0.070412      0.305017
    1263.7001     87.524597     81.100372      2.529819      0.054168      0.304975
    1263.6001     89.630554     81.771255      2.523992      0.034283      0.298317
    1263.5001     89.079987     82.922028      2.541945      0.025098      0.295510
    1263.4001     85.665665     84.431244      2.553790      0.031665      0.301452
    1263.3001     81.417099     86.422852      2.524603      0.045272      0.313660
    1263.2001     77.214554     88.643982      2.463248      0.055200      0.322423
    1263.1001     73.343918     90.403427      2.402200      0.057122      0.321595
    1263.0001     70.734589     91.344009      2.365233      0.055335      0.315291
    1262.9001     69.971405     91.453735      2.353597      0.054215      0.307646
    1262.8001     70.414688     90.743637      2.354837      0.055347      0.300434
    1262.7001     70.985046     89.246872      2.366062      0.057899      0.295283
    1262.6001     71.158478     87.802872      2.381331      0.055146      0.294112
    1262.5001     71.244141     87.769485      2.395037      0.042812      0.298314
    1262.4001     71.788116     89.459595      2.410167      0.029455      0.309665
    1262.3001     73.092880     92.016907      2.419148      0.021646      0.327593
    1262.2001     75.082733     94.558914      2.407330      0.017469      0.349283
    1262.1001     77.285156     97.091537      2.374609      0.016664      0.370994
    1262.0001     78.910828     99.793243      2.333923      0.019063      0.386419
    1261.9001     79.690369    102.184158      2.296747      0.022538      0.390925
    1261.8001     80.224304    103.505554      2.270743      0.024563      0.385397
    1261.7001     81.042542    103.494385      2.258448      0.025549      0.374604
    1261.6001     82.070541    102.636627      2.258135      0.029391      0.361776
    1261.5001     83.490128    101.755951      2.267091      0.037583      0.349504
    1261.4001     85.638596    101.343430      2.277966      0.046156      0.340678
    1261.3001     88.379578    100.938782      2.283839      0.049698      0.336713
    1261.2001     91.027359     99.577698      2.286531      0.047372      0.337026
    1261.1001     92.726257     96.866623      2.296028      0.043290      0.338244
    1261.0001     92.737610     93.366379      2.321964      0.040579      0.337152
    1260.9001     90.866089     89.589752      2.367477      0.038175      0.333942
    1260.8001     87.651566     85.710922      2.428687      0.033775      0.330406
    1260.7001     84.017395     82.477570      2.494546      0.027623      0.327912
    1260.6001     80.696808     80.771362      2.546823      0.021516      0.329267
    1260.5001     78.064255     80.532745      2.571279      0.019759      0.336450
    1260.4001     76.508408     80.865814      2.564288      0.027882      0.346711
    1260.3001     76.222824     80.940781      2.533793      0.044577      0.355000
    1260.2001     77.079834     80.543228      2.503042      0.064458      0.360187
    1260.1001     78.590439     79.749695      2.499060      0.082393      0.365557
