# LAS format data
~Version Information
VERS.     2.00: CWLS LOG ASCII STANDARD - VERSION 2.0
WRAP.       NO: ONE LINE PER DEPTH STEP
~Well Information
#MNEM   .UNITS    DATA                           DESCRIPTION
#----   ------    ----                           -----------
STRT    .M        3688.8003                     :First Index Value
STOP    .M        30.2001                       :Last Index Value
STEP    .M        -0.1000                       :Frame Spacing
NULL    .         -999.2500                     :Absent Value
WELL    .         CAPELLE-01                    :Well Name   
FLD     .         UNKNOWN                       :Field Name  
CNTY    .                                       :County
STAT    .                                       :State
CTRY    .                                       :Country
LOC     .                                       :Location
API     .                                       :API Number
DATE    .                                       :Date
COMP    .         NAM                           :Company Name
SRVC    .                                       :Service Company
~Parameter Information
#MNEM   .UNITS    VALUE                          DESCRIPTION
#----   ------    -----                          -----------
TDL     .M        3700.00000                    :Total Depth (Logger)
TDD     .M        3700.00000                    :Total Depth (Driller)   
UBID    .         2571                          :Unique Borehole Id  
PDAT    .         Mean Sea Level                :Permanent Datum 
EPD     .M           0.00000                    :Elevation of Permanent Datum (PDAT) above Mean Sea Level
LMF     .         Rotary Table                  :Logging Measured From (Name of Logging Elevation Reference) 
APD     .M           3.77000                    :Elevation of Depth Reference (LMF) Above Permanent Datum
~Curve Information
#MNEM   .UNITS    API CODE                       CURVE DESCRIPTION
#----   ------    --------                       -----------------
DEPT    .M                                      :1     Index curve
GR      .GAPI                                   :2     SNAM  
DT      .US/F                                   :3     SNAM  
RHOB    .G/C3                                   :4     SNAM  
DRHO    .G/C3                                   :5     SNAM  
NPHI    .V/V                                    :6     SNAM  
~Ascii Log Data
# ...
    3180.0002     49.323532     61.064491      2.568107     -0.009791      0.068521
    3179.9002     47.974480     60.593727      2.574470     -0.011269      0.067887
    3179.8002     46.807358     60.321510      2.578331     -0.012541      0.067257
    3179.7002     46.356071     60.145782      2.580567     -0.012689      0.066159
    3179.6002     46.552597     60.085144      2.580134     -0.011540      0.064721
    3179.5002     46.974388     60.225677      2.576640     -0.009180      0.063747
    3179.4002     47.614571     60.560600      2.571147     -0.006156      0.064193
    3179.3002     48.797241     61.052521      2.562766     -0.003966      0.066577
    3179.2002     50.530220     61.666420      2.551931     -0.003322      0.070475
    3179.1002     52.440338     62.298630      2.542073     -0.003190      0.074618
    3179.0002     54.208748     62.772736      2.535339     -0.003274      0.077600
    3178.9002     55.407761     63.072693      2.532077     -0.003971      0.078038
    3178.8002     55.460991     63.325485      2.531826     -0.004981      0.075494
    3178.7002     54.190163     63.357277      2.533144     -0.005555      0.071435
    3178.6002     52.179733     62.973633      2.534041     -0.005337      0.068050
    3178.5002     50.354935     62.458443      2.533391     -0.004588      0.066549
    3178.4002     49.555191     62.168823      2.531195     -0.003732      0.067488
    3178.3002     50.410995     62.171776      2.529228     -0.003237      0.070118
    3178.2002     53.049652     62.359528      2.529930     -0.003717      0.072287
    3178.1002     56.601479     62.504189      2.533542     -0.005504      0.072461
    3178.0002     59.537804     62.403275      2.540047     -0.007943      0.070371
    3177.9002     60.704529     62.099792      2.550999     -0.009676      0.066197
    3177.8002     59.623955     61.736580      2.564466     -0.010039      0.060378
    3177.7002     56.438515     61.315712      2.575706     -0.009378      0.053567
    3177.6002     51.934669     60.747467      2.583251     -0.008373      0.046635
    3177.5002     47.327629     60.065956      2.587624     -0.008089      0.041104
    3177.4002     43.978165     59.484108      2.589334     -0.009488      0.038453
    3177.3002     43.227058     59.227554      2.590040     -0.012257      0.039317
    3177.2002     45.315926     59.329475      2.592529     -0.014697      0.042992
    3177.1002     48.805901     59.703461      2.596398     -0.015378      0.047392
    3177.0002     51.445312     60.296829      2.596399     -0.014411      0.050024
    3176.9002     51.449402     60.933289      2.589809     -0.012839      0.050192
    3176.8002     48.517029     61.295479      2.578731     -0.011991      0.049148
    3176.7002     43.886047     61.217033      2.565441     -0.013133      0.048057
    3176.6002     39.218575     60.704948      2.553567     -0.015952      0.047373
    3176.5002     35.685341     59.889656      2.548960     -0.018581      0.046914
    3176.4002     33.485161     59.100029      2.553864     -0.019548      0.045995
    3176.3002     32.160210     58.616287      2.564687     -0.018152      0.044643
    3176.2002     31.366753     58.514671      2.574794     -0.014149      0.043940
    3176.1002     31.098545     58.777740      2.578126     -0.008253      0.045116
    3176.0002     31.611958     59.418884      2.572228     -0.002159      0.048927
    3175.9002     33.303467     60.408485      2.557909      0.002139      0.055370
    3175.8002     36.504890     61.553848      2.537651      0.002939      0.063684
    3175.7002     40.890015     62.600121      2.517251      0.000942      0.073505
    3175.6002     46.049782     63.451874      2.503219     -0.001369      0.084587
    3175.5002     52.035950     64.175079      2.497663     -0.002771      0.093849
    3175.4002     57.519508     64.799652      2.498064     -0.002854      0.098731
    3175.3002     60.092728     65.231018      2.500451     -0.001255      0.098480
    3175.2002     59.246262     65.276611      2.500620      0.000053      0.092644
    3175.1002     55.810913     64.880142      2.498601      0.000008      0.083255
    3175.0002     50.255524     64.180206      2.498692     -0.000185      0.073833
    3174.9002     44.561081     63.216217      2.501822     -0.000205      0.066552
    3174.8002     40.750702     62.049370      2.507390     -0.000084      0.061691
    3174.7002     39.250160     60.989929      2.516178      0.000705      0.059148
    3174.6002     38.861954     60.355858      2.521890      0.000573      0.058572
    3174.5002     38.927795     60.219490      2.522252     -0.001132      0.059528
    3174.4002     40.064865     60.280846      2.526097     -0.002362      0.062060
    3174.3002     41.708176     60.329689      2.532335     -0.003672      0.065377
    3174.2002     43.532318     60.424515      2.536880     -0.005822      0.068942
    3174.1002     46.816422     60.789253      2.537431     -0.006770      0.072847
    3174.0002     51.674004     61.320198      2.533015     -0.007615      0.076690
    3173.9002     57.509514     61.852905      2.523387     -0.009620      0.080218
    3173.8002     63.322769     62.466400      2.514783     -0.010213      0.082257
    3173.7002     68.976913     63.187210      2.509727     -0.010503      0.082863
    3173.6002     74.466187     63.935608      2.508609     -0.012108      0.082297
    3173.5002     78.073303     64.412201      2.513975     -0.011814      0.080186
    3173.4002     80.200729     64.611023      2.522895     -0.009529      0.077122
    3173.3002     81.521454     64.766968      2.531470     -0.006259      0.073944
    3173.2002     80.627441     65.075928      2.530315     -0.002684      0.074172
    3173.1002     77.220413     65.510422      2.520324      0.001028      0.077046
    3173.0002     72.322647     65.763580      2.504382      0.004265      0.080722
    3172.9002     67.548325     65.687668      2.486502      0.003821      0.083496
    3172.8002     63.831253     65.483109      2.471146      0.000960      0.084616
    3172.7002     62.116959     65.661652      2.467672     -0.001041      0.082937
    3172.6002     62.217911     65.877426      2.472707     -0.002552      0.079616
    3172.5002     63.360329     65.841568      2.480314     -0.003308      0.076767
    3172.4002     64.800934     65.627884      2.485434     -0.000602      0.076981
    3172.3002     66.056793     65.471542      2.486060      0.003088      0.078853
    3172.2002     66.489655     65.525024      2.483041      0.006158      0.080777
    3172.1002     65.302979     65.741776      2.478382      0.008587      0.081476
    3172.0002     62.926178     65.903854      2.474351      0.008115      0.079950
    3171.9002     59.845352     65.827286      2.471247      0.004635      0.076743
    3171.8002     56.565086     65.501373      2.468020      0.001413      0.073846
    3171.7002     54.451164     65.092407      2.468094      0.000193      0.070867
    3171.6002     53.927528     64.786133      2.472614      0.001100      0.068197
    3171.5002     53.324501     64.630386      2.477966      0.003153      0.068601
    3171.4002     52.225273     64.500275      2.481764      0.004552      0.072302
    3171.3002     51.521385     64.356628      2.483101      0.004382      0.077875
    3171.2002     52.263695     64.412674      2.479878      0.002469      0.084390
    3171.1002     54.088120     64.695908      2.478521     -0.000347      0.089892
    3171.0002     56.175240     65.004822      2.484749     -0.002812      0.092578
    3170.9002     58.633682     65.175812      2.496076     -0.003520      0.090482
    3170.8002     60.735481     65.162262      2.508970     -0.003501      0.085186
    3170.7002     61.745605     65.067276      2.521028     -0.004285      0.079685
    3170.6002     61.983269     65.032471      2.526433     -0.004708      0.075665
    3170.5002     62.208237     64.960846      2.526187     -0.004762      0.073279
