# LAS format data
~Version Information
VERS.     2.00: CWLS LOG ASCII STANDARD - VERSION 2.0
WRAP.       NO: ONE LINE PER DEPTH STEP
~Well Information
#MNEM   .UNITS    DATA                           DESCRIPTION
#----   ------    ----                           -----------
STRT    .M        3688.8003                     :First Index Value
STOP    .M        30.2001                       :Last Index Value
STEP    .M        -0.1000                       :Frame Spacing
NULL    .         -999.2500                     :Absent Value
WELL    .         CAPELLE-01                    :Well Name   
FLD     .         UNKNOWN                       :Field Name  
CNTY    .                                       :County
STAT    .                                       :State
CTRY    .                                       :Country
LOC     .                                       :Location
API     .                                       :API Number
DATE    .                                       :Date
COMP    .         NAM                           :Company Name
SRVC    .                                       :Service Company
~Parameter Information
#MNEM   .UNITS    VALUE                          DESCRIPTION
#----   ------    -----                          -----------
TDL     .M        3700.00000                    :Total Depth (Logger)
TDD     .M        3700.00000                    :Total Depth (Driller)   
UBID    .         2571                          :Unique Borehole Id  
PDAT    .         Mean Sea Level                :Permanent Datum 
EPD     .M           0.00000                    :Elevation of Permanent Datum (PDAT) above Mean Sea Level
LMF     .         Rotary Table                  :Logging Measured From (Name of Logging Elevation Reference) 
APD     .M           3.77000                    :Elevation of Depth Reference (LMF) Above Permanent Datum
~Curve Information
#MNEM   .UNITS    API CODE                       CURVE DESCRIPTION
#----   ------    --------                       -----------------
DEPT    .M                                      :1     Index curve
GR      .GAPI                                   :2     SNAM  
DT      .US/F                                   :3     SNAM  
RHOB    .G/C3                                   :4     SNAM  
DRHO    .G/C3                                   :5     SNAM  
NPHI    .V/V                                    :6     SNAM  
~Ascii Log Data
# ...
    1096.8001     60.958214    105.018082      2.344885      0.016199      0.289819
    1096.7001     59.803467    103.589920      2.356302      0.023936      0.289661
    1096.6001     58.993340    102.383224      2.371912      0.034354      0.293649
    1096.5001     59.066490    101.991577      2.385598      0.042914      0.302026
    1096.4001     60.058571    102.330505      2.383854      0.040142      0.316822
    1096.3001     61.548050    102.455811      2.378657      0.034979      0.322692
    1096.2001     62.734268    102.029816      2.374058      0.030959      0.319111
    1096.1001     62.692360    101.135452      2.364921      0.026314      0.309680
    1096.0001     62.154549     99.507187      2.369849      0.028070      0.293987
    1095.9001     61.687439     97.047150      2.387881      0.034084      0.274725
    1095.8001     61.146248     94.339081      2.400439      0.031424      0.256685
    1095.7001     60.644592     91.808685      2.412740      0.025308      0.247071
    1095.6001     60.050659     90.028793      2.426336      0.020122      0.247287
    1095.5001     58.877808     90.072189      2.427318      0.014104      0.256979
    1095.4001     57.478523     92.377808      2.423303      0.009417      0.272438
    1095.3001     56.687347     97.078568      2.421206      0.007234      0.290974
    1095.2001     57.225616    103.233261      2.416736      0.004596      0.314697
    1095.1001     59.239029    109.207016      2.407669      0.001816      0.336760
    1095.0001     62.068878    114.132843      2.395066      0.000315      0.351870
    1094.9001     64.836487    119.093399      2.379680      0.000467      0.362693
    1094.8001     66.838882    124.069824      2.363881      0.001514      0.368132
    1094.7001     67.680862    127.614777      2.350058      0.002412      0.367226
    1094.6001     67.126312    128.574097      2.340206      0.002853      0.361568
    1094.5001     65.816040    126.578583      2.336453      0.003782      0.351038
    1094.4001     64.532089    122.007324      2.340441      0.007423      0.334350
    1094.3001     62.960350    115.252731      2.355520      0.018201      0.308831
    1094.2001     60.984566    107.044327      2.381404      0.038562      0.279114
    1094.1001     58.721634     97.961777      2.419207      0.067933      0.251991
    1094.0001     56.094170     89.613815      2.473459      0.098264      0.232863
    1093.9001     53.326546     83.789551      2.533678      0.110339      0.223784
    1093.8001     50.945084     81.436707      2.590078      0.092967      0.226190
    1093.7001     49.512016     83.006256      2.647649      0.060620      0.246365
    1093.6001     49.497810     87.460022      2.684528      0.032401      0.281391
    1093.5001     51.096428     93.172531      2.661664      0.012073      0.320068
    1093.4001     53.883133     98.852386      2.587442      0.007056      0.352457
    1093.3001     56.994530    104.055420      2.502244      0.016392      0.373124
    1093.2001     59.530525    108.343033      2.433484      0.027877      0.379326
    1093.1001     60.914749    111.172165      2.393955      0.034831      0.372530
    1093.0001     61.433044    112.340042      2.380418      0.038225      0.360733
    1092.9001     61.790062    112.236328      2.380431      0.039331      0.352703
    1092.8001     62.140854    111.836197      2.380805      0.037632      0.349737
    1092.7001     62.225891    111.835815      2.374842      0.032546      0.348214
    1092.6001     62.037682    112.157562      2.364713      0.024974      0.345248
    1092.5001     61.681847    112.315933      2.355927      0.016787      0.336900
    1092.4001     61.136322    111.815567      2.353101      0.010295      0.322245
    1092.3001     60.485954    110.433273      2.357779      0.006969      0.307049
    1092.2001     60.171165    108.465729      2.367439      0.006413      0.297769
    1092.1001     60.597572    106.490341      2.376858      0.007426      0.297074
    1092.0001     61.702736    104.892471      2.382009      0.009377      0.303149
    1091.9001     63.248833    103.851395      2.382377      0.011271      0.310889
    1091.8001     64.907532    103.448914      2.379704      0.011887      0.315352
    1091.7001     66.181885    103.416306      2.375955      0.011252      0.314494
    1091.6001     66.767685    103.234848      2.372931      0.010133      0.307874
    1091.5001     66.564240    102.695480      2.372120      0.009228      0.297012
    1091.4001     65.496353    102.121399      2.373757      0.008991      0.286918
    1091.3001     63.832108    101.912918      2.376637      0.009099      0.282666
    1091.2001     62.286980    102.218857      2.378938      0.008701      0.285976
    1091.1001     61.409248    103.147995      2.379585      0.007575      0.296087
    1091.0001     61.136742    104.803909      2.378778      0.006487      0.310983
    1090.9001     60.950905    106.962708      2.377162      0.006245      0.326011
    1090.8001     60.349411    108.994095      2.374993      0.006864      0.334791
    1090.7001     59.093407    110.204269      2.373060      0.008153      0.334488
    1090.6001     57.442978    110.134323      2.372126      0.009866      0.326056
    1090.5001     56.236389    108.603348      2.371427      0.011132      0.309790
    1090.4001     56.104149    105.850784      2.370800      0.011367      0.288435
    1090.3001     56.830696    102.135529      2.373204      0.011289      0.269287
    1090.2001     57.677643     97.539322      2.383093      0.012738      0.259952
    1090.1001     57.998650     92.759720      2.403417      0.018347      0.261923
    1090.0001     57.625908     88.792633      2.437613      0.028698      0.271346
    1089.9001     56.810959     85.642563      2.488313      0.039167      0.284442
    1089.8001     55.816925     83.609467      2.550155      0.046588      0.298762
    1089.7001     54.816803     84.374359      2.602718      0.051109      0.312781
    1089.6001     54.026947     88.396561      2.618984      0.049807      0.326492
    1089.5001     53.412323     94.484665      2.589022      0.043834      0.340913
    1089.4001     52.802345    101.121475      2.525650      0.040492      0.356331
    1089.3001     52.491409    107.573181      2.450887      0.038788      0.371994
    1089.2001     52.892677    113.349884      2.383662      0.034065      0.385844
    1089.1001     54.115219    117.217239      2.339529      0.027371      0.395466
    1089.0001     56.148521    119.039734      2.315167      0.021341      0.403629
    1088.9001     58.582230    119.494873      2.299124      0.016855      0.409479
    1088.8001     60.652107    118.757111      2.288692      0.014027      0.404329
    1088.7001     62.484177    116.462311      2.283873      0.012435      0.391349
    1088.6001     64.060760    112.476624      2.284651      0.011756      0.376075
    1088.5001     64.363159    107.782257      2.292940      0.012293      0.355613
    1088.4001     63.180672    103.450150      2.308636      0.014013      0.335041
    1088.3001     61.064804    100.045731      2.327420      0.015929      0.321525
    1088.2001     58.557884     97.251999      2.339744      0.015624      0.315697
    1088.1001     56.685089     95.150955      2.347505      0.013685      0.315264
    1088.0001     56.311096     94.616714      2.355108      0.011904      0.318069
    1087.9001     57.193542     95.986893      2.360915      0.011698      0.320609
    1087.8001     58.450813     98.788895      2.364458      0.012108      0.322938
    1087.7001     59.784225    102.030548      2.365094      0.011763      0.326386
    1087.6001     61.797264    104.622589      2.356753      0.009814      0.331636
    1087.5001     64.022675    106.512009      2.343255      0.007119      0.337676
    1087.4001     65.521088    108.244705      2.331252      0.005011      0.343141
    1087.3001     66.108505    109.458099      2.324292      0.005570      0.345676
