# LAS format data
~Version Information
VERS.     2.00: CWLS LOG ASCII STANDARD - VERSION 2.0
WRAP.       NO: ONE LINE PER DEPTH STEP
~Well Information
#MNEM   .UNITS    DATA                           DESCRIPTION
#----   ------    ----                           -----------
STRT    .M        3688.8003                     :First Index Value
STOP    .M        30.2001                       :Last Index Value
STEP    .M        -0.1000                       :Frame Spacing
NULL    .         -999.2500                     :Absent Value
WELL    .         CAPELLE-01                    :Well Name   
FLD     .         UNKNOWN                       :Field Name  
CNTY    .                                       :County
STAT    .                                       :State
CTRY    .                                       :Country
LOC     .                                       :Location
API     .                                       :API Number
DATE    .                                       :Date
COMP    .         NAM                           :Company Name
SRVC    .                                       :Service Company
~Parameter Information
#MNEM   .UNITS    VALUE                          DESCRIPTION
#----   ------    -----                          -----------
TDL     .M        3700.00000                    :Total Depth (Logger)
TDD     .M        3700.00000                    :Total Depth (Driller)   
UBID    .         2571                          :Unique Borehole Id  
PDAT    .         Mean Sea Level                :Permanent Datum 
EPD     .M           0.00000                    :Elevation of Permanent Datum (PDAT) above Mean Sea Level
LMF     .         Rotary Table                  :Logging Measured From (Name of Logging Elevation Reference) 
APD     .M           3.77000                    :Elevation of Depth Reference (LMF) Above Permanent Datum
~Curve Information
#MNEM   .UNITS    API CODE                       CURVE DESCRIPTION
#----   ------    --------                       -----------------
DEPT    .M                                      :1     Index curve
GR      .GAPI                                   :2     SNAM  
DT      .US/F                                   :3     SNAM  
RHOB    .G/C3                                   :4     SNAM  
DRHO    .G/C3                                   :5     SNAM  
NPHI    .V/V                                    :6     SNAM  
~Ascii Log Data
# ...
     415.2001     63.599419    158.760437      1.907402      0.003548      0.431581
     415.1001     63.548004    159.226837      1.904903      0.004339      0.429351
     415.0001     63.337807    160.205627      1.900508      0.005108      0.434364
     414.9001     62.952721    161.620758      1.892399      0.006798      0.446472
     414.8001     62.194748    163.230469      1.879470      0.009290      0.458830
     414.7001     61.079475    164.841400      1.862285      0.011113      0.467770
     414.6001     60.073128    166.357452      1.842669      0.010345      0.480066
     414.5001     59.573753    167.447266      1.826506      0.007891      0.491660
     414.4001     59.570030    167.695282      1.820105      0.005985      0.493237
     414.3001     59.659363    167.422821      1.822239      0.005022      0.489741
     414.2001     59.314095    166.863556      1.829740      0.005876      0.482799
     414.1001     58.389114    165.906799      1.839686      0.009397      0.470194
     414.0001     57.474403    164.886261      1.843638      0.012749      0.461487
     413.9001     57.329437    164.090546      1.842734      0.015524      0.462477
     413.8001     58.199524    163.483307      1.844125      0.019257      0.468747
     413.7001     59.590279    163.066010      1.845728      0.021123      0.465656
     413.6001     60.848190    162.948914      1.846238      0.020225      0.456558
     413.5001     61.602280    163.130005      1.848243      0.018391      0.454930
     413.4001     61.781914    163.288971      1.851249      0.016482      0.454800
     413.3001     61.782982    163.159241      1.854408      0.014906      0.454823
     413.2001     62.258003    162.604919      1.858163      0.013964      0.462452
     413.1001     63.377899    161.363647      1.862023      0.011515      0.469659
     413.0001     64.435104    159.727661      1.865721      0.007418      0.470597
     412.9001     64.586929    158.764923      1.870553      0.004063      0.465526
     412.8001     64.607208    158.581390      1.878475      0.003410      0.456233
     412.7001     64.869156    158.819061      1.888656      0.005352      0.446012
     412.6001     64.649017    159.071777      1.897750      0.009025      0.439952
     412.5001     64.506866    159.200531      1.905271      0.011969      0.437670
     412.4001     64.884338    159.161926      1.911056      0.012806      0.437167
     412.3001     65.099823    158.889679      1.910646      0.008849      0.437476
     412.2001     64.820572    158.559021      1.909385      0.003749      0.437845
     412.1001     64.402695    158.472015      1.910960     -0.000094      0.438273
     412.0001     64.667419    158.910522      1.911361     -0.002191      0.441393
     411.9001     65.034576    159.848083      1.907420     -0.003925      0.447540
     411.8001     64.791534    161.242493      1.897555     -0.006230      0.456654
     411.7001     64.054840    162.597717      1.883517     -0.008423      0.468698
     411.6001     63.184639    163.647827      1.871882     -0.010851      0.480047
     411.5001     62.324898    164.355347      1.865985     -0.014313      0.489556
     411.4001     61.761734    164.679474      1.870452     -0.013993      0.491588
     411.3001     61.678101    164.868622      1.881106     -0.010607      0.483634
     411.2001     62.011208    165.267365      1.895399     -0.005404      0.463439
     411.1001     61.912224    165.825500      1.899765     -0.000788      0.449153
     411.0001     61.291107    166.428284      1.897484      0.003260      0.444251
     410.9001     60.590012    166.919800      1.895841      0.007358      0.447081
     410.8001     60.148514    167.172852      1.887999      0.008069      0.457989
     410.7001     59.995880    167.178680      1.875621      0.007460      0.470628
     410.6001     59.915604    166.925812      1.864753      0.009590      0.477674
     410.5001     59.237869    166.536133      1.853501      0.010552      0.478157
     410.4001     58.196381    166.080688      1.841282      0.009444      0.475437
     410.3001     57.686272    165.747345      1.832240      0.008628      0.471741
     410.2001     57.706978    165.856598      1.825937      0.008682      0.467562
     410.1001     57.998100    166.314117      1.819617      0.009310      0.464873
     410.0001     58.370155    166.375244      1.811314      0.010698      0.467010
     409.9001     58.245934    165.725311      1.808807      0.014270      0.471592
     409.8001     57.450760    164.689728      1.815354      0.019566      0.476430
     409.7001     56.637054    163.970886      1.823098      0.023129      0.481377
     409.6001     56.364258    163.594482      1.826038      0.022991      0.479961
     409.5001     57.023003    163.426422      1.820585      0.019301      0.474712
     409.4001     58.736015    163.759003      1.802493      0.013034      0.480927
     409.3001     60.631264    164.740936      1.776819      0.005298      0.491888
     409.2001     61.739464    165.881683      1.753602     -0.002328      0.497040
     409.1001     61.990677    166.376526      1.737054     -0.007913      0.504783
     409.0001     61.295113    166.203674      1.724634     -0.011072      0.510802
     408.9001     59.831841    166.178528      1.708504     -0.012619      0.508434
     408.8001     58.421638    166.695892      1.682479     -0.011664      0.510664
     408.7001     57.535980    167.540222      1.651730     -0.007246      0.519323
     408.6001     56.803932    168.467926      1.630656      0.001058      0.523801
     408.5001     55.736282    169.702850      1.626119      0.013558      0.525941
     408.4001     54.191002    171.210175      1.626703      0.025958      0.532307
     408.3001     52.211510    172.633636      1.607407      0.031314      0.545843
     408.2001     50.038063    174.731812      1.553883      0.026232      0.563958
     408.1001     48.448311    180.034393      1.475802      0.014401      0.577776
     408.0001     48.163940    188.654266      1.397916      0.002824      0.580283
     407.9001     49.013672    194.540802      1.342961     -0.004519      0.573483
     407.8001     50.221184    193.731476      1.317554     -0.007734      0.564279
     407.7001     51.161263    189.938843      1.309399     -0.008815      0.557630
     407.6001     51.331047    185.728027      1.305115     -0.008390      0.557832
     407.5001     50.667839    181.492798      1.295517     -0.007030      0.566420
     407.4001     49.784119    178.951935      1.279772     -0.005914      0.578144
     407.3001     49.430183    178.096039      1.263819     -0.005372      0.583393
     407.2001     49.780586    176.273132      1.252592     -0.005520      0.578928
     407.1001     50.703499    172.425476      1.245991     -0.007070      0.568142
     407.0001     52.368454    169.173584      1.242681     -0.009758      0.550695
     406.9001     54.750320    169.616211      1.244350     -0.011967      0.530050
     406.8001     57.216469    172.785370      1.258361     -0.012053      0.517099
     406.7001     59.371567    174.368317      1.295663     -0.009545      0.511951
     406.6001     61.142494    172.252136      1.361514     -0.005729      0.506413
     406.5001     62.289871    168.668060      1.451498     -0.002663      0.500089
     406.4001   -999.250000   -999.250000      1.554598     -0.001294      0.497164
     406.3001   -999.250000   -999.250000   -999.250000   -999.250000   -999.250000
     406.2001   -999.250000   -999.250000   -999.250000   -999.250000   -999.250000
     406.1001   -999.250000   -999.250000   -999.250000   -999.250000   -999.250000
     406.0001   -999.250000   -999.250000   -999.250000   -999.250000   -999.250000
     405.9001   -999.250000   -999.250000   -999.250000   -999.250000   -999.250000
     405.8001   -999.250000   -999.250000   -999.250000   -999.250000   -999.250000
     405.7001   -999.250000   -999.250000   -999.250000   -999.250000   -999.250000
