# LAS format data
~Version Information
VERS.     2.00: CWLS LOG ASCII STANDARD - VERSION 2.0
WRAP.       NO: ONE LINE PER DEPTH STEP
~Well Information
#MNEM   .UNITS    DATA                           DESCRIPTION
#----   ------    ----                           -----------
STRT    .M        3688.8003                     :First Index Value
STOP    .M        30.2001                       :Last Index Value
STEP    .M        -0.1000                       :Frame Spacing
NULL    .         -999.2500                     :Absent Value
WELL    .         CAPELLE-01                    :Well Name   
FLD     .         UNKNOWN                       :Field Name  
CNTY    .                                       :County
STAT    .                                       :State
CTRY    .                                       :Country
LOC     .                                       :Location
API     .                                       :API Number
DATE    .                                       :Date
COMP    .         NAM                           :Company Name
SRVC    .                                       :Service Company
~Parameter Information
#MNEM   .UNITS    VALUE                          DESCRIPTION
#----   ------    -----                          -----------
TDL     .M        3700.00000                    :Total Depth (Logger)
TDD     .M        3700.00000                    :Total Depth (Driller)   
UBID    .         2571                          :Unique Borehole Id  
PDAT    .         Mean Sea Level                :Permanent Datum 
EPD     .M           0.00000                    :Elevation of Permanent Datum (PDAT) above Mean Sea Level
LMF     .         Rotary Table                  :Logging Measured From (Name of Logging Elevation Reference) 
APD     .M           3.77000                    :Elevation of Depth Reference (LMF) Above Permanent Datum
~Curve Information
#MNEM   .UNITS    API CODE                       CURVE DESCRIPTION
#----   ------    --------                       -----------------
DEPT    .M                                      :1     Index curve
GR      .GAPI                                   :2     SNAM  
DT      .US/F                                   :3     SNAM  
RHOB    .G/C3                                   :4     SNAM  
DRHO    .G/C3                                   :5     SNAM  
NPHI    .V/V                                    :6     SNAM  
~Ascii Log Data
# ...
     924.0002     38.809410    105.153107      2.418900      0.001001      0.287291
     923.9002     39.564606    108.943665      2.397884      0.003878      0.311074
     923.8002     40.378738    113.217514      2.362634      0.006000      0.331377
     923.7002     41.038879    117.655731      2.315407      0.007769      0.348484
     923.6002     41.566299    121.701584      2.254574      0.010667      0.364558
     923.5002     42.121597    124.470200      2.182953      0.015876      0.376973
     923.4002     42.604401    125.721375      2.112522      0.023833      0.383300
     923.3002     42.642708    126.330292      2.058081      0.035185      0.387673
     923.2002     42.209610    126.746872      2.031704      0.050125      0.391795
     923.1002     41.840271    126.334198      2.033832      0.065057      0.393552
     923.0002     42.105080    124.955856      2.054576      0.073553      0.393555
     922.9002     43.246674    123.758041      2.084384      0.074512      0.390420
     922.8002     45.032600    123.674088      2.115426      0.072265      0.379446
     922.7002     46.768181    123.807755      2.139083      0.069078      0.360954
     922.6002     47.716751    122.439514      2.155951      0.069030      0.342272
     922.5002     47.649292    119.264694      2.175413      0.076933      0.329183
     922.4002     46.842140    115.742004      2.197889      0.087751      0.319980
     922.3002     45.702522    113.261139      2.218160      0.090143      0.310546
     922.2002     44.630959    111.898117      2.236464      0.078510      0.300488
     922.1002     44.099014    111.393173      2.254257      0.057019      0.292880
     922.0002     44.191734    111.720749      2.267045      0.034913      0.293058
     921.9002     44.502640    112.700684      2.266225      0.020050      0.304910
     921.8002     44.750671    113.894333      2.248894      0.015313      0.325714
     921.7002     44.894897    115.063644      2.217721      0.016103      0.348848
     921.6002     44.961250    116.298981      2.177748      0.015450      0.368784
     921.5002     45.219780    117.748688      2.137541      0.013389      0.383458
     921.4002     46.104759    119.881729      2.102277      0.015536      0.395528
     921.3002     47.587143    123.186096      2.072264      0.025630      0.408183
     921.2002     48.877312    126.957428      2.049611      0.042289      0.419706
     921.1002     49.113037    129.283112      2.039014      0.060803      0.425399
     921.0002     48.021393    128.855011      2.042984      0.073221      0.421058
     920.9002     45.886070    126.853958      2.055552      0.069061      0.405721
     920.8002     43.555923    125.284744      2.073760      0.049668      0.387461
     920.7002     42.007256    124.553452      2.102134      0.030493      0.378870
     920.6002     41.497009    124.459503      2.129473      0.019495      0.381458
     920.5002     41.633850    125.450882      2.139959      0.018267      0.389444
     920.4002     42.015488    127.836685      2.131486      0.032618      0.398004
     920.3002     42.500465    130.255310      2.109137      0.060900      0.397688
     920.2002     43.156868    130.579590      2.081091      0.094227      0.385263
     920.1002     44.128250    128.133575      2.062816      0.124789      0.369662
     920.0002     45.246910    123.858414      2.069656      0.152248      0.354847
     919.9002     45.984810    119.049744      2.103155      0.172694      0.340222
     919.8002     45.718826    114.585907      2.148053      0.166502      0.328603
     919.7002     44.516449    111.182526      2.194776      0.138822      0.323123
     919.6002     42.755333    109.949295      2.237599      0.103594      0.327367
     919.5002     40.668526    112.002182      2.258003      0.062365      0.350516
     919.4002     39.155159    116.203430      2.258646      0.028178      0.380659
     919.3002     38.974609    120.038971      2.250029      0.013639      0.402464
     919.2002     39.822937    122.250366      2.234680      0.011402      0.408440
     919.1002     41.483459    123.059479      2.220807      0.014947      0.400411
     919.0002     43.906464    122.913925      2.218668      0.027097      0.381636
     918.9002     45.957588    121.660934      2.233854      0.055872      0.366157
     918.8002     47.151077    120.549850      2.247319      0.086022      0.359932
     918.7002     47.735397    122.074020      2.232687      0.095955      0.363505
     918.6002     47.721848    125.408432      2.190033      0.086424      0.376174
     918.5002     47.153229    128.724396      2.125664      0.064360      0.393229
     918.4002     46.115250    130.275177      2.031661      0.029843      0.409923
     918.3002     44.924835    129.442291      1.966548      0.016902      0.406322
     918.2002     43.868469    126.258331      1.950577      0.030936      0.382476
     918.1002     43.249443    121.600601      1.993284      0.061244      0.346842
     918.0002     43.063553    116.781525      2.076292      0.088212      0.315116
     917.9002     42.845230    112.999451      2.179103      0.104150      0.296132
     917.8002     42.102325    112.679031      2.259289      0.094547      0.307589
     917.7002     41.756248    115.364975      2.282512      0.070429      0.332752
     917.6002     42.237816    119.892960      2.257310      0.043639      0.360327
     917.5002     43.045547    123.325241      2.224255      0.045555      0.386084
     917.4002     44.589569    125.345306      2.193110      0.058285      0.398332
     917.3002     46.417702    126.128784      2.163506      0.067893      0.395279
     917.2002     46.375793    125.524979      2.160241      0.077621      0.381894
     917.1002     45.637169    124.475510      2.166454      0.081103      0.365821
     917.0002     45.299347    123.688370      2.169377      0.074066      0.351884
     916.9002     44.078110    122.494598      2.198895      0.092025      0.354123
     916.8002     42.853767    120.870697      2.234120      0.115196      0.356172
     916.7002     42.479706    118.447205      2.256930      0.124136      0.345364
     916.6002     41.568657    113.902878      2.280523      0.115644      0.316694
     916.5002     40.777237    107.847549      2.309961      0.093152      0.281328
     916.4002     41.248215    102.865692      2.341872      0.060008      0.251607
     916.3002     42.176544    100.238815      2.379694      0.033388      0.243071
     916.2002     42.895081    100.170578      2.414527      0.019962      0.253724
     916.1002     43.392563    102.103302      2.433267      0.016722      0.274055
     916.0002     43.650475    105.260361      2.422513      0.015538      0.304149
     915.9002     43.626083    109.454361      2.388961      0.013022      0.336143
     915.8002     43.463547    114.860565      2.347590      0.010443      0.360433
     915.7002     43.442558    120.951187      2.298817      0.007397      0.376719
     915.6002     43.486572    125.859421      2.247808      0.003956      0.384163
     915.5002     43.349922    127.970642      2.198743      0.001202      0.381887
     915.4002     43.231926    127.936707      2.149371      0.001669      0.374116
     915.3002     43.336578    127.069931      2.102322      0.007478      0.367967
     915.2002     43.614494    125.239548      2.067653      0.021330      0.366021
     915.1002     44.102867    121.960800      2.058194      0.045479      0.363619
     915.0002     44.833199    117.928986      2.078922      0.076319      0.356728
     914.9002     45.679688    114.917572      2.129142      0.106910      0.347068
     914.8002     46.331833    113.933060      2.192072      0.126911      0.338733
     914.7002     46.490959    114.918549      2.244186      0.130024      0.337510
     914.6002     45.939545    117.966492      2.267507      0.113553      0.349396
     914.5002     44.758034    122.523117      2.253835      0.081265      0.372507
