# LAS format data
~Version Information
VERS.     2.00: CWLS LOG ASCII STANDARD - VERSION 2.0
WRAP.       NO: ONE LINE PER DEPTH STEP
~Well Information
#MNEM   .UNITS    DATA                           DESCRIPTION
#----   ------    ----                           -----------
STRT    .M        3688.8003                     :First Index Value
STOP    .M        30.2001                       :Last Index Value
STEP    .M        -0.1000                       :Frame Spacing
NULL    .         -999.2500                     :Absent Value
WELL    .         CAPELLE-01                    :Well Name   
FLD     .         UNKNOWN                       :Field Name  
CNTY    .                                       :County
STAT    .                                       :State
CTRY    .                                       :Country
LOC     .                                       :Location
API     .                                       :API Number
DATE    .                                       :Date
COMP    .         NAM                           :Company Name
SRVC    .                                       :Service Company
~Parameter Information
#MNEM   .UNITS    VALUE                          DESCRIPTION
#----   ------    -----                          -----------
TDL     .M        3700.00000                    :Total Depth (Logger)
TDD     .M        3700.00000                    :Total Depth (Driller)   
UBID    .         2571                          :Unique Borehole Id  
PDAT    .         Mean Sea Level                :Permanent Datum 
EPD     .M           0.00000                    :Elevation of Permanent Datum (PDAT) above Mean Sea Level
LMF     .         Rotary Table                  :Logging Measured From (Name of Logging Elevation Reference) 
APD     .M           3.77000                    :Elevation of Depth Reference (LMF) Above Permanent Datum
~Curve Information
#MNEM   .UNITS    API CODE                       CURVE DESCRIPTION
#----   ------    --------                       -----------------
DEPT    .M                                      :1     Index curve
GR      .GAPI                                   :2     SNAM  
DT      .US/F                                   :3     SNAM  
RHOB    .G/C3                                   :4     SNAM  
DRHO    .G/C3                                   :5     SNAM  
NPHI    .V/V                                    :6     SNAM  
~Ascii Log Data
# ...
    3516.0001    143.784119     75.297012      2.350893      0.109736      0.290458
    3515.9001    145.354034     75.099838      2.369666      0.130042      0.267684
    3515.8001    145.317566     75.570984      2.382642      0.140730      0.241189
    3515.7001    144.199005     76.348953      2.388659      0.132360      0.216397
    3515.6001    141.457977     76.578857      2.393097      0.106013      0.196009
    3515.5001    137.336609     75.666519      2.396266      0.067609      0.184169
    3515.4001    133.042053     73.882950      2.398687      0.029542      0.182741
    3515.3001    129.459930     72.253235      2.403937      0.006283      0.188540
    3515.2001    127.336945     71.526031      2.404660     -0.001356      0.199348
    3515.1001    127.121704     71.293930      2.393840     -0.002903      0.214196
    3515.0001    128.293304     70.737473      2.379860     -0.003564      0.230118
    3514.9001    129.888000     70.070602      2.370078     -0.003828      0.243331
    3514.8001    131.215118     69.848755      2.362452     -0.003965      0.249770
    3514.7001    131.769196     69.750702      2.354630     -0.004059      0.246012
    3514.6001    131.125366     69.628220      2.346473     -0.004018      0.232020
    3514.5001    129.327698     69.893387      2.338717     -0.003929      0.211809
    3514.4001    127.172897     70.322937      2.331815     -0.004140      0.191032
    3514.3001    125.548676     70.236664      2.325831     -0.004520      0.174465
    3514.2001    124.779404     69.504166      2.321231     -0.004232      0.164464
    3514.1001    124.575104     68.616653      2.318275     -0.002506      0.160314
    3514.0001    124.284622     68.005157      2.315499      0.000358      0.159756
    3513.9001    123.151718     67.616638      2.311505      0.003223      0.159963
    3513.8001    120.714203     67.205200      2.307104      0.005114      0.158630
    3513.7001    117.275696     66.676727      2.302484      0.005491      0.154652
    3513.6001    113.652969     66.089218      2.297408      0.005036      0.149150
    3513.5001    110.681961     65.569672      2.294333      0.006362      0.145773
    3513.4001    108.743576     65.267670      2.294849      0.012287      0.147366
    3513.3001    107.772552     65.325668      2.296617      0.021955      0.154986
    3513.2001    107.699936     65.788788      2.299911      0.031072      0.167808
    3513.1001    108.686050     66.633621      2.324405      0.047183      0.181279
    3513.0001    110.816132     67.695053      2.380849      0.081408      0.191955
    3512.9001    113.695953     68.562653      2.422691      0.122762      0.201484
    3512.8001    117.555588     69.434677      2.427805      0.164736      0.208375
    3512.7001    122.654007     70.633423      2.410980      0.210933      0.209983
    3512.6001    127.385223     71.058807      2.366298      0.244831      0.212934
    3512.5001    130.796265     70.792862      2.304630      0.259469      0.222419
    3512.4001    133.190094     71.419449      2.262236      0.264487      0.236146
    3512.3001    134.235138     71.964615      2.246702      0.267756      0.247363
    3512.2001    133.633698     72.279312      2.243073      0.269616      0.253170
    3512.1001    131.887329     74.130157      2.238315      0.266807      0.253007
    3512.0001    129.887268     75.516037      2.232953      0.263216      0.245628
    3511.9001    127.995132     74.591858      2.229511      0.261356      0.235424
    3511.8001    126.460403     72.734451      2.227306      0.259168      0.231602
    3511.7001    126.121170     70.995163      2.223878      0.255561      0.234905
    3511.6001    126.782410     70.236984      2.219365      0.251416      0.241561
    3511.5001    127.167099     71.456329      2.217206      0.247654      0.248153
    3511.4001    127.610947     72.958405      2.217134      0.236774      0.251136
    3511.3001    128.705902     73.288025      2.224109      0.217184      0.249480
    3511.2001    130.128052     73.655273      2.262105      0.198686      0.244116
    3511.1001    131.913300     73.776031      2.325034      0.179896      0.236743
    3511.0001    133.415283     72.830231      2.399620      0.162358      0.229764
    3510.9001    132.790527     71.829086      2.496666      0.174185      0.228404
    3510.8001    131.000000     71.448395      2.575930      0.203432      0.229304
    3510.7001    129.440369     71.427002      2.608697      0.235113      0.228784
    3510.6001    128.006989     70.634674      2.583560      0.263834      0.223132
    3510.5001    127.691605     69.577011      2.528604      0.284474      0.214525
    3510.4001    128.813751     69.442917      2.464507      0.292630      0.205247
    3510.3001    128.924255     69.727005      2.383720      0.263918      0.190316
    3510.2001    127.001266     69.988892      2.314648      0.208694      0.173848
    3510.1001    123.861832     69.918564      2.284754      0.140558      0.160287
    3510.0001    121.193192     68.751022      2.302265      0.071584      0.147325
    3509.9001    119.690964     67.240356      2.360189      0.019441      0.137413
    3509.8001    119.135559     66.987442      2.473828     -0.002742      0.133266
    3509.7001    119.219864     66.830124      2.564627     -0.000705      0.134171
    3509.6001    118.986069     66.264496      2.612241      0.008566      0.135985
    3509.5001    117.254593     65.951874      2.627283      0.015197      0.135903
    3509.4001    113.770523     65.594986      2.637834      0.016332      0.136696
    3509.3001    110.096100     65.007019      2.651797      0.012819      0.138804
    3509.2001    108.118896     64.461853      2.659396      0.002956      0.141091
    3509.1001    108.369095     64.002319      2.674868     -0.004622      0.143646
    3509.0001    109.844894     63.709679      2.697472     -0.007059      0.146064
    3508.9001    111.433411     63.808037      2.712908     -0.005412      0.147398
    3508.8001    112.413269     64.128815      2.718397     -0.004372      0.147705
    3508.7001    112.098740     64.437210      2.718157     -0.005430      0.147798
    3508.6001    109.902771     64.568604      2.713681     -0.007161      0.148540
    3508.5001    108.215271     64.661484      2.708599     -0.009199      0.149695
    3508.4001    108.773315     64.787537      2.704962     -0.011088      0.150583
    3508.3001    111.103104     64.757645      2.704069     -0.010390      0.150406
    3508.2001    113.871017     64.672943      2.703508     -0.008067      0.150123
    3508.1001    115.922409     64.626892      2.699504     -0.006429      0.150415
    3508.0001    116.465881     64.501282      2.685555     -0.007882      0.150255
    3507.9001    115.775269     64.704651      2.656863     -0.012860      0.148301
    3507.8001    114.688538     65.681381      2.616352     -0.019527      0.144529
    3507.7001    113.831421     66.912643      2.577709     -0.022949      0.140808
    3507.6001    112.812027     67.893707      2.551231     -0.017700      0.138622
    3507.5001    111.148834     68.354462      2.539986     -0.002476      0.138587
    3507.4001    109.202728     68.059875      2.538858      0.015595      0.140729
    3507.3001    107.350189     67.385010      2.542713      0.027412      0.144084
    3507.2001    106.235855     67.228363      2.550906      0.026854      0.146814
    3507.1001    107.118683     67.973206      2.564906      0.014626      0.147070
    3507.0001    110.816620     68.664352      2.589519     -0.000236      0.145014
    3506.9001    117.098053     67.790649      2.622888     -0.008103      0.142957
    3506.8001    125.477707     65.446793      2.645063     -0.008606      0.141924
    3506.7001    134.454437     63.543037      2.642594     -0.004613      0.139047
    3506.6001    141.406403     63.288284      2.619662      0.002591      0.130673
    3506.5001    143.794617     63.224487      2.574841      0.011495      0.118894
